stop_id,stop_name,stop_lat,stop_lon,order_RED,order_BLU
MYP,Miyapur,17.496545,78.373026,1,
JNT,JNTU College,17.4986172,78.3887978,2,
KPH,KPHB Colony,17.4937437,78.4017199,3,
KUK,Kukatpally,17.4850231,78.411564,4,
BLR,Dr. B. R. Ambedkar Balanagar,17.4767681,78.4219146,5,
MSP,Moosapet,17.4720318,78.4259115,6,
BTN,Bharath Nagar,17.4639529,78.4300317,7,
ERA,Erragadda,17.4571936,78.4334885,8,
ESI,ESI Hospital,17.4473511,78.4383254,9,
SRN,S R Nagar,17.4415761,78.4416901,10,
AME,Ameerpet,17.435744,78.4444228,11,14
PUN,Punjagutta,17.4285221,78.4512194,12,
IRM,Irrum Manzil,17.42068,78.4560001,13,
KHA,Khairatabad,17.4116026,78.4608227,14,
LKP,Lakdikapul,17.4039235,78.4650517,15,
ASM,Assembly,17.3980654,78.470813,16,
NAM,Nampally,17.3922869,78.4701371,17,
GAB,Gandhi Bhavan,17.3860492,78.4731361,18,
OMC,Osmania Medical College,17.3823887,78.4811461,19,
MGBS,MG Bus station,17.3801006,78.4859344,20,
MKL,Malakpet,17.3772536,78.4938709,21,
NEM,New Market,17.3734747,78.5030743,22,
MSB,Musarambagh,17.3710675,78.512036,23,
DSN,Dilsukhnagar,17.3685902,78.5256698,24,
CHP,Chaitanyapuri,17.3683484,78.5355997,25,
VOM,Victoria Memorial,17.36183,78.5439116,26,
LBN,L B Nagar,17.3498217,78.5479062,27,
NAG,Nagole,17.3908086,78.5588326,,1
UPL,Uppal,17.4000616,78.5602109,,2
SOI,Stadium,17.407377,78.5542363,,3
NGR,NGRI,17.4148056,78.5463193,,4
HSG,Habsiguda,17.4201384,78.5405529,,5
TAR,Tarnaka,17.4282661,78.5285302,,6
MET,Mettuguda,17.435408,78.519646,,7
SEC,Secunderabad (E),17.435711,78.505433,,8
PRG,Parade Grounds,17.443192,78.497472,,9
PAR,Paradise,17.4434488,78.4862214,,10
ROP,Rasoolpura,17.443602,78.476053,,11
PRN,Prakash Nagar,17.445038,78.465045,,12
BEG,Begumpet,17.4374962,78.4569299,,13
