location_type,parent_station,stop_code,stop_id,stop_lat,stop_lon,stop_name,stop_url,wheelchair_boarding,zone_id
1,,K01,1,33.583772,130.325038,姪浜,https://subway.city.fukuoka.lg.jp/eki/stations/meinohama.php,1,1
0,1,,1_1,33.583772,130.325038,姪浜,,1,1
0,1,,1_2,33.583772,130.325038,姪浜,,1,1
1,,K02,2,33.580947,130.340145,室見,https://subway.city.fukuoka.lg.jp/eki/stations/muromi.php,1,2
0,2,,2_1,33.580947,130.340145,室見,,1,2
0,2,,2_2,33.580947,130.340145,室見,,1,2
1,,K03,3,33.581376,130.348202,藤崎,https://subway.city.fukuoka.lg.jp/eki/stations/fujisaki.php,1,3
0,3,,3_1,33.581376,130.348202,藤崎,,1,3
0,3,,3_2,33.581376,130.348202,藤崎,,1,3
1,,K04,4,33.583726,130.359714,西新,https://subway.city.fukuoka.lg.jp/eki/stations/nishijin.php,1,4
0,4,,4_1,33.583726,130.359714,西新,,1,4
0,4,,4_2,33.583726,130.359714,西新,,1,4
1,,K05,5,33.590278,130.370443,唐人町,https://subway.city.fukuoka.lg.jp/eki/stations/tojinmachi.php,1,5
0,5,,5_1,33.590278,130.370443,唐人町,,1,5
0,5,,5_2,33.590278,130.370443,唐人町,,1,5
1,,K06,6,33.590081,130.378844,大濠公園,https://subway.city.fukuoka.lg.jp/eki/stations/oohori.php,1,6
0,6,,6_1,33.590081,130.378844,大濠公園,,1,6
0,6,,6_2,33.590081,130.378844,大濠公園,,1,6
1,,K07,7,33.589134,130.390946,赤坂,https://subway.city.fukuoka.lg.jp/eki/stations/akasak.php,1,7
0,7,,7_1,33.589134,130.390946,赤坂,,1,7
0,7,,7_2,33.589134,130.390946,赤坂,,1,7
1,,K08,8,33.591493,130.399379,天神,https://subway.city.fukuoka.lg.jp/eki/stations/tenjin.php,1,8
0,8,,8_1,33.591493,130.399379,天神,,1,8
0,8,,8_2,33.591493,130.399379,天神,,1,8
1,,K09/H01,9,33.59438,130.405988,中洲川端,https://subway.city.fukuoka.lg.jp/eki/stations/nakasu.php,1,9
0,9,,9_1,33.59438,130.405988,中洲川端,,1,9
0,9,,9_2,33.59438,130.405988,中洲川端,,1,9
0,9,,9_3,33.59438,130.405988,中洲川端,,1,9
0,9,,9_4,33.59438,130.405988,中洲川端,,1,9
1,,K10,10,33.594156,130.414656,祇園,https://subway.city.fukuoka.lg.jp/eki/stations/gion.php,1,10
0,10,,10_1,33.594156,130.414656,祇園,,1,10
0,10,,10_2,33.594156,130.414656,祇園,,1,10
1,,K11,11,33.59013,130.420616,博多,https://subway.city.fukuoka.lg.jp/eki/stations/hakata.php,1,11
0,11,,11_1,33.59013,130.420616,博多,,1,11
0,11,,11_2,33.59013,130.420616,博多,,1,11
1,,K12,12,33.589956,130.431265,東比恵,https://subway.city.fukuoka.lg.jp/eki/stations/higashihie.php,1,12
0,12,,12_1,33.589956,130.431265,東比恵,,1,12
0,12,,12_2,33.589956,130.431265,東比恵,,1,12
1,,K13,13,33.597052,130.448549,福岡空港,https://subway.city.fukuoka.lg.jp/eki/stations/kuko.php,1,13
0,13,,13_1,33.597052,130.448549,福岡空港,,1,13
0,13,,13_2,33.597052,130.448549,福岡空港,,1,13
1,,H02,14,33.598294,130.409882,呉服町,https://subway.city.fukuoka.lg.jp/eki/stations/gofuku.php,1,14
0,14,,14_1,33.598294,130.409882,呉服町,,1,14
0,14,,14_2,33.598294,130.409882,呉服町,,1,14
1,,H03,15,33.602548,130.414324,千代県庁口,https://subway.city.fukuoka.lg.jp/eki/stations/tiyo.php,1,15
0,15,,15_1,33.602548,130.414324,千代県庁口,,1,15
0,15,,15_2,33.602548,130.414324,千代県庁口,,1,15
1,,H04,16,33.609357,130.419388,馬出九大病院前,https://subway.city.fukuoka.lg.jp/eki/stations/maidashi.php,1,16
0,16,,16_1,33.609357,130.419388,馬出九大病院前,,1,16
0,16,,16_2,33.609357,130.419388,馬出九大病院前,,1,16
1,,H05,17,33.61579,130.419677,箱崎宮前,https://subway.city.fukuoka.lg.jp/eki/stations/hakozakimiya.php,1,17
0,17,,17_1,33.61579,130.419677,箱崎宮前,,1,17
0,17,,17_2,33.61579,130.419677,箱崎宮前,,1,17
1,,H06,18,33.622178,130.421019,箱崎九大前,https://subway.city.fukuoka.lg.jp/eki/stations/hakozakikyudai.php,1,18
0,18,,18_1,33.622178,130.421019,箱崎九大前,,1,18
0,18,,18_2,33.622178,130.421019,箱崎九大前,,1,18
1,,H07,19,33.632683,130.425578,貝塚,https://subway.city.fukuoka.lg.jp/eki/stations/kaizuka.php,1,19
0,19,,19_1,33.632683,130.425578,貝塚,,1,19
0,19,,19_2,33.632683,130.425578,貝塚,,1,19
1,,N01,20,33.555156,130.321122,橋本,https://subway.city.fukuoka.lg.jp/eki/stations/hashimoto.php,1,20
0,20,,20_1,33.555156,130.321122,橋本,,1,20
0,20,,20_2,33.555156,130.321122,橋本,,1,20
1,,N02,21,33.552724,130.329534,次郎丸,https://subway.city.fukuoka.lg.jp/eki/stations/jiromaru.php,1,21
0,21,,21_1,33.552724,130.329534,次郎丸,,1,21
0,21,,21_2,33.552724,130.329534,次郎丸,,1,21
1,,N03,22,33.550533,130.337913,賀茂,https://subway.city.fukuoka.lg.jp/eki/stations/kamo.php,1,22
0,22,,22_1,33.550533,130.337913,賀茂,,1,22
0,22,,22_2,33.550533,130.337913,賀茂,,1,22
1,,N04,23,33.548334,130.346571,野芥,https://subway.city.fukuoka.lg.jp/eki/stations/noke.php,1,23
0,23,,23_1,33.548334,130.346571,野芥,,1,23
0,23,,23_2,33.548334,130.346571,野芥,,1,23
1,,N05,24,33.545839,130.354993,梅林,https://subway.city.fukuoka.lg.jp/eki/stations/ume.php,1,24
0,24,,24_1,33.545839,130.354993,梅林,,1,24
0,24,,24_2,33.545839,130.354993,梅林,,1,24
1,,N06,25,33.547511,130.362225,福大前,https://subway.city.fukuoka.lg.jp/eki/stations/fukudai.php,1,25
0,25,,25_1,33.547511,130.362225,福大前,,1,25
0,25,,25_2,33.547511,130.362225,福大前,,1,25
1,,N07,26,33.553207,130.361667,七隈,https://subway.city.fukuoka.lg.jp/eki/stations/nanakuma.php,1,26
0,26,,26_1,33.553207,130.361667,七隈,,1,26
0,26,,26_2,33.553207,130.361667,七隈,,1,26
1,,N08,27,33.559331,130.361538,金山,https://subway.city.fukuoka.lg.jp/eki/stations/kanayama.php,1,27
0,27,,27_1,33.559331,130.361538,金山,,1,27
0,27,,27_2,33.559331,130.361538,金山,,1,27
1,,N09,28,33.566099,130.3654,茶山,https://subway.city.fukuoka.lg.jp/eki/stations/chayama.php,1,28
0,28,,28_1,33.566099,130.3654,茶山,,1,28
0,28,,28_2,33.566099,130.3654,茶山,,1,28
1,,N10,29,33.574207,130.369638,別府,https://subway.city.fukuoka.lg.jp/eki/stations/befu.php,1,29
0,29,,29_1,33.574207,130.369638,別府,,1,29
0,29,,29_2,33.574207,130.369638,別府,,1,29
1,,N11,30,33.577693,130.377331,六本松,https://subway.city.fukuoka.lg.jp/eki/stations/roppon.php,1,30
0,30,,30_1,33.577693,130.377331,六本松,,1,30
0,30,,30_2,33.577693,130.377331,六本松,,1,30
1,,N12,31,33.577326,130.386858,桜坂,https://subway.city.fukuoka.lg.jp/eki/stations/sakurazaka.php,1,31
0,31,,31_1,33.577326,130.386858,桜坂,,1,31
0,31,,31_2,33.577326,130.386858,桜坂,,1,31
1,,N13,32,33.580392,130.396203,薬院大通,https://subway.city.fukuoka.lg.jp/eki/stations/yakuinoo.php,1,32
0,32,,32_1,33.580392,130.396203,薬院大通,,1,32
0,32,,32_2,33.580392,130.396203,薬院大通,,1,32
1,,N14,33,33.581805,130.401825,薬院,https://subway.city.fukuoka.lg.jp/eki/stations/yakuin.php,1,33
0,33,,33_1,33.581805,130.401825,薬院,,1,33
0,33,,33_2,33.581805,130.401825,薬院,,1,33
1,,N15,34,33.583968,130.404947,渡辺通,https://subway.city.fukuoka.lg.jp/eki/stations/watanabe.php,1,34
0,34,,34_1,33.583968,130.404947,渡辺通,,1,34
0,34,,34_2,33.583968,130.404947,渡辺通,,1,34
1,,N16,35,33.58824,130.401717,天神南,https://subway.city.fukuoka.lg.jp/eki/stations/tenjinminami.php,1,35
0,35,,35_1,33.58824,130.401717,天神南,,1,35
0,35,,35_2,33.58824,130.401717,天神南,,1,35
