"Sr.","Direction","Stop Name Marathi","stop_name","stop_id","stop_lat","stop_lon","zone_id"
1,"UP",509,509,"A509Y1",18.574521,73.899507,"A509Y1"
2,"Down",509,509,"A509Y2",18.57458,73.899595,"A509Y2"
3,"UP","12  वा मैल","12 Wa Mile","12WML1",18.608913,74.01542,"12WML1"
4,"Down","12  वा मैल","12 Wa Mile","12WML2",18.608913,74.01542,"12WML2"
5,"UP","१५ ऑगस्ट चौक","15 August Chowk","15AUG1",18.522448,73.866454,"15AUG1"
6,"Down","१५ ऑगस्ट चौक","15 August Chowk","15AUG2",18.52284,73.867736,"15AUG2"
7,"UP","१५ नंबर","15 Number","15NUM1",18.499018,73.951441,"15NUM1"
8,"Down","१५ नंबर","15 Number","15NUM2",18.499017,73.951774,"15NUM2"
9,"UP","१६ नंबर","16 Number","16NUM1",18.607644,73.771889,"16NUM1"
10,"Down","१६ नंबर","16 Number","16NUM2",18.607839,73.772062,"16NUM2"
11,"UP","५ वा मैल","5 Wa Mile","5WMIL1",18.562325,73.923267,"5WMIL1"
12,"Down","५ वा मैल","5 Wa Mile","5WMIL2",18.562317,73.923617,"5WMIL2"
13,"UP","आपले घर","Aaple Ghar","APLGH1",18.567656,73.947832,"APLGH1"
14,"Down","आपले घर","Aaple Ghar","APLGH2",18.567483,73.948111,"APLGH2"
15,"UP","एडी कॅम्प चौक","AD Camp Chowk","ADCMP1",18.512562,73.868686,"ADCMP1"
16,"Down","एडी कॅम्प चौक","AD Camp Chowk","ADCMP2",18.512571,73.868829,"ADCMP2"
17,"UP","अग्नीशामक केंद्र लांडेवाडी ","Agnishamak Kendra Landewadi","AKLND1",18.620321,73.846448,"AKLND1"
18,"UP","आग्रवाल कॉलनी","Agrawal Colony","AGRCL1",18.500043,73.943986,"AGRCL1"
19,"Down","आग्रवाल कॉलनी","Agrawal Colony","AGRCL2",18.50004,73.94444,"AGRCL2"
20,"UP","अहिल्या सोसायटी","Ahilya Society","AHLSC1",18.552314,73.875744,"AHLSC1"
21,"Down","अहिल्या सोसायटी","Ahilya Society","AHLSC2",18.552769,73.878503,"AHLSC2"
22,"UP","अहिरेश्वरवाडी","Ahireshwarwadi","AHRWD1",18.496569,73.861539,"AHRWD1"
23,"Down","अहिरेश्वरवाडी","Ahireshwarwadi","AHRWD2",18.496547,73.861411,"AHRWD2"
24,"UP","एआयटी कॉलेज","AIT College","AITCL1",18.606663,73.873347,"AITCL1"
25,"Down","एआयटी कॉलेज","AIT College","AITCL2",18.6071,73.87343,"AITCL2"
26,"UP","अजंठानगर","Ajanthanagar","AJTNG1",18.662623,73.789685,"AJTNG1"
27,"Down","अजंठानगर","Ajanthanagar","AJTNG2",18.662519,73.790054,"AJTNG2"
28,"UP","आकाशवाणी","Akashwani","AKSHW1",18.499505,73.947994,"AKSHW1"
29,"Down","आकाशवाणी","Akashwani","AKSHW2",18.499649,73.9481,"AKSHW2"
30,"UP","आकुर्डी चौक","Akurdi Chowk","AKRDC1",18.649557,73.78219,"AKRDC1"
31,"Down","आकुर्डी चौक","Akurdi Chowk","AKRDC2",18.649167,73.78526,"AKRDC2"
32,"UP","आकुर्डी खंडोबा माळ","Akurdi Khandoba Maal","AKRKM1",18.651133,73.78622,"AKRKM1"
33,"Down","आकुर्डी खंडोबा माळ","Akurdi Khandoba Maal","AKRKM2",18.650859,73.786159,"AKRKM2"
34,"Down","अलंकार टॉकिज","Alankar Talkies","ALNKT1",18.527906,73.875018,"ALNKT1"
35,"UP","आलेगांवकर शाळा","Alegaonkar Shala","ALSHA1",18.568147,73.845291,"ALSHA1"
36,"Down","आलेगांवकर शाळा","Alegaonkar Shala","ALSHA2",18.567893,73.845608,"ALSHA2"
37,"UP","आलेर वेअर हौसिंग","Aler Ware Housing","ALWAH1",18.54691,73.930233,"ALWAH1"
38,"UP","अल्फा लवाल कंपनी","Alfa Laval Company","ALLAC2",18.598353,73.827698,"ALLAC2"
39,"Down","अलका टॉकीज","Alka Talkies","ALTAL1",18.513349,73.8450108,"ALTAL1"
40,"UP","आंबेडकर भवन","Ambedkar Bhavan","AMBHA2",18.524934,73.86844,"AMBHA2"
41,"Down","आंबेडकर भवन","Ambedkar Bhavan","AMBHA1",18.524934,73.86844,"AMBHA1"
42,"UP","आंबेडकर सोसायटी","Ambedkar Society","AMSOC2",18.552923,73.873696,"AMSOC2"
43,"Down","आंबेडकर सोसायटी","Ambedkar Society","AMSOC1",18.552942,73.873693,"AMSOC1"
44,"Down","अ‍ॅम्युनिशन फॅक्टरी","Ammunition Factory","AMFAC2",18.5694555,73.856676,"AMFAC2"
45,"UP","अ‍ॅम्युनेशन फॅक्टरी गेट","Ammunition Factory Gate","AMFAG1",18.569696,73.856809,"AMFAG1"
46,"UP","अ‍ॅम्युनिशन स्टोअर्स","Ammunition Stores","AMSTO2",18.56788,73.8565,"AMSTO2"
47,"Down","अ‍ॅम्युनिशन स्टोअर्स","Ammunition Stores","AMSTO1",18.567599,73.856329,"AMSTO1"
48,"UP","आनंद पार्क","Anand Park","ANPAR2",18.552667,73.925537,"ANPAR2"
49,"Down","आनंद पार्क","Anand Park","ANPAR1",18.552758,73.925473,"ANPAR1"
50,"UP","आनंदनगर कोथरुड ","Anandnagar Kothrud","ANKOT2",18.50979,73.814767,"ANKOT2"
51,"Down","आनंदनगर कोथरुड ","Anandnagar Kothrud","ANKOT1",18.509369,73.812067,"ANKOT1"
52,"UP","आनंदनगर सिंहगड रोड ","Anandnagar Sinhagad Road","ANSIR2",18.4775999,73.8235549,"ANSIR2"
53,"Down","आनंदनगर सिंहगड रोड ","Anandnagar Sinhagad Road","ANSIR1",18.477646,73.823708,"ANSIR1"
54,"UP","अंध शाळा कोथरूड ","Andh Shala Kothrud","ANSHK2",18.496067,73.803298,"ANSHK2"
55,"Down","अंध शाळा कोथरूड ","Andh Shala Kothrud","ANSHK1",18.496169,73.803234,"ANSHK1"
56,"UP","अन्नपुर्णा","Annapurna","ANNAP2",18.662681,73.783607,"ANNAP2"
57,"Down","अन्नपुर्णा","Annapurna","ANNAP1",18.662681,73.783607,"ANNAP1"
58,"UP","आपोलो टॉकीज","Apollo Talkies","APLTA2",18.519584,73.864785,"APLTA2"
59,"Down","आपोलो टॉकीज","Apollo Talkies","APLTA1",18.519453,73.864623,"APLTA1"
60,"UP","अप्पा बळवंत चौक","Appa Balawant Chowk","APBAC2",18.514926,73.853746,"APBAC2"
61,"Down","अप्पा बळवंत चौक","Appa Balawant Chowk","APBAC1",18.516316,73.8531111,"APBAC1"
62,"UP","आपले हॉस्पिटल","Apple Hospital","APHOS2",18.588332,73.781379,"APHOS2"
63,"Down","आपले हॉस्पिटल","Apple Hospital","APHOS1",18.588616,73.781315,"APHOS1"
64,"UP","अप्सरा टॉकीज","Apsara Talkies","APTAL2",18.500386,73.869343,"APTAL2"
65,"Down","अप्सरा टॉकीज","Apsara Talkies","APTAL1",18.500137,73.869516,"APTAL1"
66,"UP","अरण्येश्वर कॉर्नर","Aranyeshwar Corner","ARCOR2",18.4864,73.8575,"ARCOR2"
67,"Down","अरण्येश्वर कॉर्नर","Aranyeshwar Corner","ARCOR1",18.4861362,73.8576003,"ARCOR1"
68,"UP","अर्सनल फॅक्टरी गेट","Arsenal Factory Gate","ARFAG2",18.57323337,73.858448,"ARFAG2"
69,"Down","अर्सनल फॅक्टरी गेट","Arsenal Factory Gate","ARFAG1",18.573341,73.858408,"ARFAG1"
70,"UP","आशिष गार्डन","Ashish Garden","ASGAR2",18.501968,73.802375,"ASGAR2"
71,"Down","आशिष गार्डन","Ashish Garden","ASGAR1",18.501968,73.802375,"ASGAR1"
72,"UP","अ‍ॅटलास कंपनी","Atlas Company","ATCOM2",18.618822,73.850344,"ATCOM2"
73,"Down","अ‍ॅटलास कंपनी","Atlas Company","ATCOM1",18.618639,73.849915,"ATCOM1"
74,"UP","औंध हॉस्पिटल","Aundh Hospital","AUHOS2",18.576739,73.803097,"AUHOS2"
75,"Down","औंध हॉस्पिटल","Aundh Hospital","AUHOS1",18.576896,73.803226,"AUHOS1"
76,"UP","औंध गांव","Aundhgaon","AUNDH2",18.565567,73.812186,"AUNDH2"
77,"Down","औंधगांव","Aundhgaon","AUNDH1",18.566517,73.812009,"AUNDH1"
78,"UP","बी यू भंडारी","B U Bhandari","BHAND2",18.682747,74.113803,"BHAND2"
79,"Down","बी यू भंडारी","B U Bhandari","BHAND1",18.682747,74.113803,"BHAND1"
80,"UP","बधाई स्वीट्स","Badhai Sweets","BASWE2",18.502143,73.805422,"BASWE2"
81,"Down","बधाई स्वीट्स","Badhai Sweets","BASWE1",18.501918,73.805116,"BASWE1"
82,"UP","बाफना इंडस्ट्री","Bafna Industries","BAIND2",18.647414,74.067821,"BAIND2"
83,"Down","बाफना इंडस्ट्री","Bafna Industries","BAIND1",18.647414,74.067821,"BAIND1"
84,"UP","बहिरटवाडी","Bahiratwadi","BAHIR2",18.53439,73.830071,"BAHIR2"
85,"Down","बहिरटवाडी","Bahiratwadi","BAHIR1",18.535762,73.830075,"BAHIR1"
86,"UP","बजाज ऑटो","Bajaj Auto","BAAUT2",18.653676,73.782194,"BAAUT2"
87,"Down","बजाज ऑटो","Bajaj Auto","BAAUT1",18.653881,73.782524,"BAAUT1"
88,"UP","बेकर कंपनी","Baker Company","BACOM2",18.567277,73.918477,"BACOM2"
89,"Down","बेकर कंपनी","Baker Company","BACOM1",18.567276,73.918528,"BACOM1"
90,"UP","बकुरी फाटा","Bakuri Phata","BAPHA2",18.589507,73.99731,"BAPHA2"
91,"Down","बकुरी फाटा","Bakuri Phata","BAPHA1",18.589507,73.99731,"BAPHA1"
92,"UP","बाल कल्याण संस्था","Bal Kalyan Sanstha","BAKAS2",18.548507,73.823441,"BAKAS2"
93,"Down","बाल कल्याण संस्था","Bal Kalyan Sanstha","BAKAS1",18.548837,73.82356,"BAKAS1"
94,"UP","बालाजीनगर","Balajinagar","BALAJ2",18.464558,73.8579734,"BALAJ2"
95,"Down","बालाजीनगर","Balajinagar","BALAJ1",18.464399,73.858168,"BALAJ1"
96,"UP","बालभारती","Balbharati","BALBH2",18.522078,73.829233,"BALBH2"
97,"Down","बालभारती","Balbharati","BALBH1",18.521385,73.829162,"BALBH1"
98,"Down","बालगंधर्व","Balgandharv","BALGA2",18.521846,73.847476,"BALGA2"
99,"UP","बनाचा ओढा","Banacha Odha","BAODH1",18.627407,73.865359,"BAODH1"
100,"Down","बनाचा ओढा","Banacha Odha","BAODH2",18.627432,73.865198,"BAODH2"
101,"UP","बँक ऑफ महाराष्ट्र हिंजवडी","Bank Of Maharashtra Hinjawadi","BAOFM1",18.593873,73.731465,"BAOFM1"
102,"Down","बँक ऑफ महाराष्ट्र","Bank Of Maharashtra Hinjawadi","BAOFM2",18.593441,73.73245,"BAOFM2"
103,"UP","बापूसाहेब मगर वस्ती","Bapusaheb Magarvasti","BAMAG1",18.518525,73.932589,"BAMAG1"
104,"Down","बापूसाहेब मगरवस्ती","Bapusaheb Magarvasti","BAMAG2",18.518102,73.932806,"BAMAG2"
105,"UP","बेनकरवस्ती","Benkarvasti","BENKA1",18.443125,73.8158,"BENKA1"
106,"Down","बेनकरवस्ती","Benkarvasti","BENKA2",18.443917,73.815741,"BENKA2"
107,"UP","भैरवनगर पिंपळेगुरव","Bhairavnagar Pimplegurav","BHPIM1",18.597031,73.814372,"BHPIM1"
108,"Down","भैरवनगर पिंपळेगुरव","Bhairavnagar Pimplegurav","BHPIM2",18.597092,73.814368,"BHPIM2"
109,"UP","भैरोबा नाला पोलीस चौकी","Bhairoba Nala Police Chowky","BHNAP1",18.5067,73.89682,"BHNAP1"
110,"Down","भैरोबा नाला पोलीस चौकी","Bhairoba Nala Police Chowky","BHNAP2",18.506935,73.896687,"BHNAP2"
111,"UP","भैरोबानागर","Bhairobanagar","BHAIR1",18.674984,74.144822,"BHAIR1"
112,"Down","भैरोबानागर","Bhairobanagar","BHAIR2",18.674984,74.144822,"BHAIR2"
113,"UP","भक्ति शक्ति","Bhakti Shakti","BHSHA1",18.664863,73.77178,"BHSHA1"
114,"Down","भक्ति शक्ति","Bhakti Shakti","BHSHA2",18.665423,73.772236,"BHSHA2"
115,"UP","भांडारकर रोड","Bhandarkar Road","BHROA1",18.519344,73.830311,"BHROA1"
116,"Down","भांडारकर रोड","Bhandarkar Road","BHROA2",18.519762,73.830474,"BHROA2"
117,"UP","भापकर पेट्रोल पंप","Bhapkar Petrol Pump","BHPEP1",18.4885076,73.8573517,"BHPEP1"
118,"Down","भापकर पेट्रोल पंप","Bhapkar Petrol Pump","BHPEP2",18.4897477,73.8576551,"BHPEP2"
119,"UP","भारती विद्यापीठ गेट","Bharati Vidyapeeth Gate","BHVIG1",18.4578924,73.8581048,"BHVIG1"
120,"Down","भारती विद्यापीठ गेट","Bharati Vidyapeeth Gate","BHVIG2",18.457023,73.858506,"BHVIG2"
121,"UP","भारतीनगर","Bharatinagar","BHARA1",18.507892,73.79692,"BHARA1"
122,"Down","भारतीनगर","Bharatinagar","BHARA2",18.507685,73.797148,"BHARA2"
123,"UP","भेकराईनगर","Bhekrainagar","BHEKR1",18.483858,73.952578,"BHEKR1"
124,"Down","भेकराईनगर","Bhekrainagar","BHEKR2",18.484256,73.952662,"BHEKR2"
125,"UP","भिकारदास मारूती","Bhikardas Maruti","BHMAR1",18.508219,73.853669,"BHMAR1"
126,"UP","भोईरनगर","Bhoirnagar","BHOIR2",18.642713,73.783551,"BHOIR2"
127,"Down","भोईरनगर","Bhoirnagar","BHOIR1",18.642696,73.783671,"BHOIR1"
128,"UP","भोंडवेवस्ती  रावेत","Bhondvevasti Ravet","BHRAV2",18.653193,73.73757,"BHRAV2"
129,"Down","भोंडवेवस्ती  रावेत","Bhondvevasti Ravet","BHRAV1",18.653525,73.737611,"BHRAV1"
130,"UP","भोसरी","Bhosari","BHOSA2",18.622214,73.851357,"BHOSA2"
131,"Down","भोसरी","Bhosari","BHOSA1",18.623259,73.851417,"BHOSA1"
132,"UP","भोसरी पोलीस स्टेशन","Bhosari Police Station","BHPOS2",18.618065,73.826967,"BHPOS2"
133,"Down","भोसरी पोलीस स्टेशन","Bhosari Police Station","BHPOS1",18.61837,73.82713,"BHPOS1"
134,"UP","भूमकर चौक","Bhumkar Chowk","BHCHO2",18.605746,73.752593,"BHCHO2"
135,"Down","भूमकर चौक","Bhumkar Chowk","BHCHO1",18.60601,73.752639,"BHCHO1"
136,"UP","भूमकरवस्ती","Bhumkarvasti","BHUMK2",18.602852,73.749365,"BHUMK2"
137,"Down","भूमकरवस्ती","Bhumkarvasti","BHUMK1",18.602904,73.749301,"BHUMK1"
138,"UP","बिडी कामगार वसाहत खराडी","Bidi Kamgar Vasahat Kharadi","BIKAK2",18.557211,73.932296,"BIKAK2"
139,"Down","बिडी कामगार वसाहत खराडी","Bidi Kamgar Vasahat Kharadi","BIKAK1",18.557324,73.932319,"BIKAK1"
140,"UP","बीडी कामगार वसाहत येरवडा","Bidi Kamgar Vasahat Yerawada","BIKAY2",18.553243,73.882531,"BIKAY2"
141,"Down","बिडी कामगार वसाहत येरवडा","Bidi Kamgar Vasahat Yerawada","BIKAY1",18.553338,73.88264,"BIKAY1"
142,"UP","बर्ड व्हॅली","Bird Valley","BIVAL2",18.657321,73.799538,"BIVAL2"
143,"Down","बर्ड व्हॅली","Bird Valley","BIVAL1",18.6571,73.799301,"BIVAL1"
144,"UP","बिर्ला हॉस्पीटल","Birla Hospital","BIHOS2",18.625965,73.775692,"BIHOS2"
145,"Down","बिर्ला हॉस्पीटल","Birla Hospital","BIHOS1",18.626773,73.775162,"BIHOS1"
146,"UP","बिटेवस्ती","Bitevasti","BITEV2",18.54507,73.93562,"BITEV2"
147,"Down","बिटेवस्ती","Bitevasti","BITEV1",18.545228,73.935915,"BITEV1"
148,"UP","बॉडीगेट","Bodygate","BODYG2",18.56311,73.813115,"BODYG2"
149,"Down","बॉडीगेट","Bodygate","BODYG1",18.563131,73.813502,"BODYG1"
150,"UP","बॉम्बे गॅरेज","Bombay Garage","BOGAR2",18.512925,73.879841,"BOGAR2"
151,"Down","बॉम्बे गॅरेज","Bombay Garage","BOGAR1",18.513103,73.879897,"BOGAR1"
152,"UP","बोपोडी","Bopodi","BOPOD2",18.571394,73.838154,"BOPOD2"
153,"Down","बोपोडी","Bopodi","BOPOD1",18.571615,73.837902,"BOPOD1"
154,"UP","ब्रेमण चौक","Bremen Chowk","BRCHO2",18.559595,73.815419,"BRCHO2"
155,"Down","ब्रेमण चौक","Bremen Chowk","BRCHO1",18.55972,73.815579,"BRCHO1"
156,"UP","बंडगार्डन","Bundgarden","BUNDG2",18.54068,73.88344,"BUNDG2"
157,"Down","बंडगार्डन","Bundgarden","BUNDG1",18.540639,73.883628,"BUNDG1"
158,"UP","सेचुरीएन्का कॉलनी","Century Enka Colony","CEECO2",18.615859,73.847988,"CEECO2"
159,"Down","सेचुरीएन्का कॉलनी","Century Enka Colony","CEECO1",18.615904,73.847388,"CEECO1"
160,"UP","सेच्युरीऐन्का कंपनी","Century Enka Company","CEENC2",18.626833,73.835111,"CEENC2"
161,"Down","सेच्युरीऐन्का कंपनी","Century Enka Company","CEENC1",18.62733,73.834818,"CEENC1"
162,"UP","चंदननगर","Chandannagar","CHAND2",18.563342,73.932965,"CHAND2"
163,"Down","चंदननगर","Chandannagar","CHAND1",18.563342,73.932965,"CHAND1"
164,"UP","चाफेकर चौक","Chaphekar Chowk","CHCHO2",18.630113,73.779302,"CHCHO2"
165,"Down","चाफेकर चौक","Chaphekar Chowk","CHCHO1",18.62839,73.780308,"CHCHO1"
166,"UP","चतु:श्रृंगी पायथा","Chatuhshrungi Paytha","CHPAY2",18.5393422,73.8297355,"CHPAY2"
167,"Down","चतु:श्रृंगी पायथा","Chatuhshrungi Paytha","CHPAY1",18.539861,73.829854,"CHPAY1"
168,"UP","चिंचवड स्टेशन","Chinchwad Station","CHSTA2",18.6397953,73.7939696,"CHSTA2"
169,"Down","चिंचवड स्टेशन","Chinchwad Station","CHSTA1",18.638225,73.795849,"CHSTA1"
170,"UP","चिंचवडगांव","Chinchwadgaon","CHINC2",18.627841,73.782584,"CHINC2"
171,"Down","चिंचवडगांव","Chinchwadgaon","CHINC1",18.627568,73.782086,"CHINC1"
172,"UP","चित्रशाळा","Chitrashala","CHITR2",18.513118,73.846995,"CHITR2"
173,"UP","सीआयआरटी","CIRT","CIRT01",18.6142,73.82476,"CIRT01"
174,"Down","सीआयआरटी","CIRT","CIRT02",18.614216,73.824469,"CIRT02"
175,"Down","सिटि पोस्ट","City Post","CIPOS1",18.51577,73.856819,"CIPOS1"
176,"Down","सीओईपी होस्टेल","COEP Hostel","COHOS2",18.528638,73.852335,"COHOS2"
177,"UP","कलेक्टर कचेरी","Collector Kacheri","COKAC1",18.524428,73.871644,"COKAC1"
178,"Down","कलेक्टर कचेरी","Collector Kacheri","COKAC2",18.524797,73.871778,"COKAC2"
179,"Down","कॉमन वेल्थ","Common Wealth","COWEA1",18.514033,73.84917,"COWEA1"
180,"UP","कॉर्पोरेशन बँक","Corporation Bank","COBAN2",18.565117,73.911456,"COBAN2"
181,"Down","कॉर्पोरेशन बँक","Corporation Bank","COBAN1",18.56207,73.911528,"COBAN1"
182,"Down","दगडी नागोबा","Dagadi Nagoba","DANAG2",18.518375,73.86164,"DANAG2"
183,"UP","डेअरी फार्म","Dairy Farm","DAFAR1",18.621252,73.760226,"DAFAR1"
184,"Down","डेअरी फार्म","Dairy Farm","DAFAR2",18.621439,73.760502,"DAFAR2"
185,"UP","दक्षिणमुखी मारुती","Dakshinmukhi Maruti","DAMAR1",18.518276,73.85397,"DAMAR1"
186,"UP","दांडेकर पूल","Dandekar Pul","DAPUL2",18.501333,73.847038,"DAPUL2"
187,"Down","दांडेकर पूल","Dandekar Pul","DAPUL1",18.501145,73.846516,"DAPUL1"
188,"UP","डांगे चौक","Dange Chowk","DACHO2",18.614509,73.765934,"DACHO2"
189,"Down","डांगे चौक","Dange Chowk","DACHO1",18.614648,73.766066,"DACHO1"
190,"UP","दापोडी","Dapodi","DAPOD2",18.581448,73.834119,"DAPOD2"
191,"Down","दापोडी","Dapodi","DAPOD1",18.581448,73.834119,"DAPOD1"
192,"UP","दाते स्टॉप","Date Stop","DASTO2",18.480146,73.850276,"DASTO2"
193,"Down","दाते स्टॉप","Date Stop","DASTO1",18.478586,73.850699,"DASTO1"
194,"UP","दत्तमंदिर विमाननगर","Dattamandir Vimannagar","DAVIM2",18.565472,73.914011,"DAVIM2"
195,"Down","दत्तमंदिर विमाननगर","Dattamandir Vimannagar","DAVIM1",18.565275,73.914012,"DAVIM1"
196,"UP","दत्तमंदिर वाडगावशेरी","Dattamandir Wadgaonsheri","DAWAD2",18.54681,73.921389,"DAWAD2"
197,"Down","दत्तमंदिर वाडगावशेरी","Dattamandir Wadgaonsheri","DAWAD1",18.546513,73.921381,"DAWAD1"
198,"UP","दत्तनगर आळंदी रोड ","Dattanagar Alandi Road","DAALR2",18.622081,73.874074,"DAALR2"
199,"Down","दत्तनगर आळंदी रोड ","Dattanagar Alandi Road","DAALR1",18.622537,73.874123,"DAALR1"
200,"UP","दत्तनगर चिंचवड रोड ","Dattanagar Chinchwad Road","DACHR2",18.623257,73.774002,"DACHR2"
201,"Down","दत्तनगर चिंचवड रोड ","Dattanagar Chinchwad Road","DACHR1",18.623241,73.77437,"DACHR1"
202,"UP","डेक्कन कॉलेज","Deccan College","DECOL2",18.548284,73.8717,"DECOL2"
203,"Down","डेक्कन कॉलेज","Deccan College","DECOL1",18.549986,73.8718729,"DECOL1"
204,"UP","डेक्कन कॉर्नर","Deccan Corner","DECOR2",18.513473,73.840953,"DECOR2"
205,"Down","डेक्कन कॉर्नर","Deccan Corner","DECOR1",18.513403,73.841148,"DECOR1"
206,"UP","डेक्कन जिमखाना","Deccan Gymkhana","DEGYM2",18.516977,73.843265,"DEGYM2"
207,"Down","डेक्कन जिमखाना","Deccan Gymkhana","DEGYM1",18.516977,73.843265,"DEGYM1"
208,"UP","धायरेश्वर मंदीर","Dhayareshwar Mandir","DHMAN2",18.44243,73.812587,"DHMAN2"
209,"Down","धायरेश्वर मंदीर","Dhayareshwar Mandir","DHMAN1",18.442297,73.812738,"DHMAN1"
210,"UP","धायरी मारूती मंदिर","Dhayari Maruti Mandir","DHMAM2",18.442561,73.809882,"DHMAM2"
211,"Down","धायरी मारूती मंदिर","Dhayari Maruti Mandir","DHMAM1",18.442561,73.809882,"DHMAM1"
212,"UP","धायरी फाटा","Dhayari Phata","DHPHA2",18.461356,73.813114,"DHPHA2"
213,"Down","धायरी फाटा","Dhayari Phata","DHPHA1",18.460649,73.812741,"DHPHA1"
214,"UP","धायरीगांव","Dhayarigaon","DHAYA2",18.447788,73.810327,"DHAYA2"
215,"Down","धायरीगांव","Dhayarigaon","DHAYA1",18.447547,73.810356,"DHAYA1"
216,"UP","डायस प्लॉट","Dias Plot","DIPLO2",18.495966,73.869191,"DIPLO2"
217,"Down","डायस प्लॉट","Dias Plot","DIPLO1",18.495966,73.869191,"DIPLO1"
218,"UP","दिघी","Dighi","DIGHI2",18.613673,73.87285,"DIGHI2"
219,"Down","दिघी","Dighi","DIGHI1",18.612773,73.872958,"DIGHI1"
220,"UP","ज्ञानेश सोसायटी","Dnyanesh Society","DNSOC2",18.477935,73.797953,"DNSOC2"
221,"Down","ज्ञानेश सोसायटी","Dnyanesh Society","DNSOC1",18.47793,73.798232,"DNSOC1"
222,"UP","ज्ञानेश्र्वर सोसायटी","Dnyaneshwar Society","DNRSO2",18.481596,73.850008,"DNRSO2"
223,"Down","ज्ञानेश्र्वर सोसायटी","Dnyaneshwar Society","DNRSO1",18.482611,73.849829,"DNRSO1"
224,"UP","दूध केंद्र","Doodh Kendra","DOKEN2",18.552549,73.878336,"DOKEN2"
225,"Down","दूध केंद्र","Doodh Kendra","DOKEN1",18.552549,73.878336,"DOKEN1"
226,"UP","द्रोपदी मंगल कार्यालय","Draupada Mangal Karyalay","DRMAK2",18.59851,73.742985,"DRMAK2"
227,"UP","दूर्वांकरनगर","Durvankarnagar","DURVA1",18.625669,73.861796,"DURVA1"
228,"Down","दूर्वांकरनगर","Durvankarnagar","DURVA2",18.625771,73.862036,"DURVA2"
229,"Down","ई स्केअर","E Square","EQUAR1",18.534976,73.83661,"EQUAR1"
230,"UP","इलेक्ट्रॉनिक सदन","Electronic Sadan","ELSAD2",18.623019,73.838574,"ELSAD2"
231,"Down","इलेक्ट्रॉनिक सदन","Electronic Sadan","ELSAD1",18.622951,73.838535,"ELSAD1"
232,"UP","एलप्रो कंपनी","Elpro Company","ELCOM2",18.63091,73.783026,"ELCOM2"
233,"Down","एलप्रो कंपनी","Elpro Company","ELCOM1",18.632447,73.785068,"ELCOM1"
234,"UP","एमक्युअर","EmCure","EMCUR2",18.595727,73.712464,"EMCUR2"
235,"Down","एमक्युअर","EmCure","EMCUR1",18.59603,73.712839,"EMCUR1"
236,"UP","एमपायर इस्टेट","Empire Estate","EMEST2",18.634892,73.798157,"EMEST2"
237,"Down","एमपायर इस्टेट","Empire Estate","EMEST1",18.635373,73.798232,"EMEST1"
238,"UP","एम्प्लायमेट ऑफिस","Employment Office","EMOFF2",18.520088,73.870078,"EMOFF2"
239,"Down","एम्प्लायमेट ऑफिस","Employment Office","EMOFF1",18.519996,73.86993,"EMOFF1"
240,"UP","एनफिल्ड कंपनी","Enfield Company","ENCOM2",18.678515,74.109304,"ENCOM2"
241,"Down","एनफिल्ड कंपनी","Enfield Company","ENCOM1",18.678515,74.109304,"ENCOM1"
242,"UP","इंजिनिअरिंग कॉलेज","Engineering College","ENCOL2",18.529403,73.858528,"ENCOL2"
243,"Down","इंजिनिअरिंग कॉलेज","Engineering College","ENCOL1",18.529569,73.85857,"ENCOL1"
244,"UP","फॅक्टरी  रोड","Factory Road","FAROA2",18.564904,73.850456,"FAROA2"
245,"Down","फॅक्टरी रोड","Factory Road","FAROA1",18.564871,73.850433,"FAROA1"
246,"UP","फातिमानगर","Fatimanagar","FATIM2",18.506393,73.901918,"FATIM2"
247,"Down","फातिमानगर","Fatimanagar","FATIM1",18.506704,73.899748,"FATIM1"
248,"UP","फर्ग्युसन कॉलेज","Fergusson College","FECOL2",18.522937,73.840956,"FECOL2"
249,"UP","फिल्म इन्स्टियुट","Film Institute","FIINS1",18.512187,73.828964,"FIINS1"
250,"Down","फिल्म इन्स्टियुट","Film Institute","FIINS2",18.513135,73.828709,"FIINS2"
251,"UP","फिनिलेक्स ","Finolex","FINOL1",18.630705,73.802172,"FINOL1"
252,"Down","फिनिलेक्स ","Finolex","FINOL2",18.630483,73.801762,"FINOL2"
253,"UP","फन टाईम","Fun Time","FUTIM1",18.468676,73.819436,"FUTIM1"
254,"Down","फन टाईम","Fun Time","FUTIM2",18.469005,73.819846,"FUTIM2"
255,"UP","गाडेवस्ती","Gadevasti","GADEV1",18.597105,74.003084,"GADEV1"
256,"Down","गाडेवस्ती","Gadevasti","GADEV2",18.597105,74.003084,"GADEV2"
257,"Down","गाडीखाना","Gadikhana","GADIK1",18.512214,73.8577,"GADIK1"
258,"UP","गाडीतळ","Gadital","GADIT2",18.527152,73.864217,"GADIT2"
259,"Down","गाडीतळ","Gadital","GADIT1",18.527027,73.864834,"GADIT1"
260,"UP","गजानन महाराज मंदिर आळंदी रोड","Gajanan Maharaj Mandir Alandi Road","GAMAM2",18.631922,73.872697,"GAMAM2"
261,"Down","गजानन महाराज मंदिर आळंदी रोड ","Gajanan Maharaj Mandir Alandi Road","GAMAM1",18.632102,73.872929,"GAMAM1"
262,"UP","गालिंदे पथ","Galinde Path","GAPAT2",18.4846528,73.8104976,"GAPAT2"
263,"Down","गालिंदे पथ","Galinde Path","GAPAT1",18.4846528,73.8104976,"GAPAT1"
264,"UP","गनंजय सोसायटी","Gananjay Society","GASOC2",18.500157,73.804807,"GASOC2"
265,"Down","गनंजय सोसायटी","Gananjay Society","GASOC1",18.500167,73.804769,"GASOC1"
266,"UP","गांधी अ‍ॅसिड कंपनी","Gandhi Acid Company","GAACC2",18.57388908,73.88830295,"GAACC2"
267,"Down","गांधी अ‍ॅसिड कंपनी","Gandhi Acid Company","GAACC1",18.573801,73.888143,"GAACC1"
268,"UP","गांधी भवन फाटा","Gandhi Bhavan Phata","GABHP2",18.495867,73.813289,"GABHP2"
269,"Down","गांधी भवन फाटा","Gandhi Bhavan Phata","GABHP1",18.495108,73.813418,"GABHP1"
271,"UP","गणेशमळा","Ganesh Mala","GAMAL1",18.495082,73.837032,"GAMAL1"
272,"Down","गणेशमळा","Ganesh Mala","GAMAL2",18.495547,73.837802,"GAMAL2"
273,"UP","गणेश मंदिर पिंपळे गौरव","Ganesh Mandir Pimple Gaurav","GAMAP1",18.599879,73.792971,"GAMAP1"
274,"Down","गणेश मंदिर पिंपळे गौरव","Ganesh Mandir Pimple Gaurav","GAMAP2",18.599879,73.792971,"GAMAP2"
275,"UP","गणेश मंदिर रहाटणी","Ganesh Mandir Rahatani","GAMAR1",18.599805,73.793019,"GAMAR1"
276,"Down","गणेश मंदिर रहाटणी","Ganesh Mandir Rahatani","GAMAR2",18.599879,73.792971,"GAMAR2"
277,"UP","गणेश पार्क","Ganesh Park","GAPAR1",18.475343,73.822512,"GAPAR1"
278,"Down","गणेश पार्क","Ganesh Park","GAPAR2",18.475765,73.822838,"GAPAR2"
279,"UP","गणेशनगर","Ganeshnagar","GANES1",18.450584,73.810979,"GANES1"
280,"Down","गणेशनगर","Ganeshnagar","GANES2",18.450525,73.811049,"GANES2"
281,"UP","गणेशनगर आळंदी रोड ","Ganeshnagar Alandi Road","GAALR1",18.597641,73.873345,"GAALR1"
282,"Down","गणेशनगर आळंदी रोड ","Ganeshnagar Alandi Road","GAALR2",18.597641,73.873345,"GAALR2"
283,"UP","गणेशनगर आनंद पार्क","Ganeshnagar Anand Park","GAANP1",18.555017,73.928434,"GAANP1"
284,"Down","गणेशनगर आनंद पार्क","Ganeshnagar Anand Park","GAANP2",18.555017,73.928434,"GAANP2"
285,"UP","गणेश नगर डांगे चौक","Ganeshnagar Dange Chowk","GADAC1",18.612692,73.762715,"GADAC1"
286,"Down","गणेश नगर डांगे चौक","Ganeshnagar Dange Chowk","GADAC2",18.612834,73.762511,"GADAC2"
287,"UP","गणेशनगर धायरी ","Ganeshnagar Dhayari","GADHA1",18.450584,73.810979,"GADHA1"
288,"Down","गणेशनगर धायरी ","Ganeshnagar Dhayari","GADHA2",18.450525,73.811049,"GADHA2"
289,"UP","गणेशनगर टेल्को रोड ","Ganeshnagar Telco Road","GATER1",18.634334,73.828543,"GATER1"
290,"Down","गणेशनगर टेल्को रोड ","Ganeshnagar Telco Road","GATER2",18.634328,73.828278,"GATER2"
291,"UP","गंगानगर","Ganganagar","GANGA1",18.48754,73.951839,"GANGA1"
292,"Down","गंगा नगर","Ganganagar","GANGA2",18.486572,73.952622,"GANGA2"
293,"UP","गंगापूरम म्हाडा","Gangapuram Mhada","GAMHA1",18.567714,73.910939,"GAMHA1"
294,"Down","गंगापूरम म्हाडा","Gangapuram Mhada","GAMHA2",18.567714,73.910939,"GAMHA2"
295,"Down","गणपती चौक लक्ष्मी रोड ","Ganpati Chowk Laxmi Road","GACHL1",18.514957,73.854801,"GACHL1"
296,"UP","गारमाळ","Garmal","GARMA2",18.457268,73.811732,"GARMA2"
297,"Down","गारमाळ","Garmal","GARMA1",18.45744,73.811808,"GARMA1"
298,"UP","गरवारे कॉलेज","Garware College","GACOL2",18.512377,73.838648,"GACOL2"
299,"Down","गरवारे कॉलेज","Garware College","GACOL1",18.512053,73.838262,"GACOL1"
300,"UP","गवळी  माथा","Gavali Matha","GAMAT2",18.637065,73.825797,"GAMAT2"
301,"Down","गवळी माथा","Gavali Matha","GAMAT1",18.637073,73.826009,"GAMAT1"
302,"UP","गव्हाणेवस्ती भोसरी","Gavhanevasti Bhosari","GABHO2",18.620465,73.849228,"GABHO2"
303,"Down","जिओमॅट्रीक","Geometric","GEOME1",18.593441,73.73245,"GEOME1"
304,"UP","घरकुल कॉर्नर","Gharkul Corner","GHCOR2",18.665805,73.805652,"GHCOR2"
305,"Down","घरकुल कॉर्नर","Gharkul Corner","GHCOR1",18.665655,73.805891,"GHCOR1"
306,"UP","घरकुल वसाहत चिखली ","Gharkul Vasahat Chikhali","GHVAC2",18.669097,73.806195,"GHVAC2"
307,"Down","घरकुल वसाहत चिखली ","Gharkul Vasahat Chikhali","GHVAC1",18.669547,73.806357,"GHVAC1"
308,"UP","घोरपडे पेठ","Ghorpade Peth","GHPET2",18.500038,73.86487,"GHPET2"
309,"Down","घोरपडे पेठ","Ghorpade Peth","GHPET1",18.500768,73.864075,"GHPET1"
311,"UP","गिरिधर भवन","Giridhar Bhavan","GIBHA1",18.492908,73.868842,"GIBHA1"
312,"Down","गर्ल्स  स्कूल","Girls School","GISCH2",18.516258,73.850995,"GISCH2"
313,"UP","गोडाउन तळेगाव ढमढेरे","Godown Talegaon Dhamdhere","GOTAD1",18.665761,74.15372,"GOTAD1"
314,"Down","गोडाउन तळेगाव ढमढेरे","Godown Talegaon Dhamdhere","GOTAD2",18.665761,74.15372,"GOTAD2"
315,"UP","गोडावुन तालेरा ","Godown Talera","GOTAL1",18.576234,73.964218,"GOTAL1"
316,"Down","गोडावुन तालेरा ","Godown Talera","GOTAL2",18.576077,73.963982,"GOTAL2"
317,"Down","गोखले हॉल","Gokhale Hall","GOHAL1",18.514288,73.851612,"GOHAL1"
318,"Down","गोकुळ भवन","Gokul Bhavan","GOBHA2",18.501725,73.858564,"GOBHA2"
319,"UP","गोल मार्केट","Gol Market Aundh Road","GOMAA1",18.5511,73.821632,"GOMAA1"
320,"Down","गोल मार्केट","Gol Market Aundh Road","GOMAA2",18.551838,73.818967,"GOMAA2"
321,"UP","गोळीबार मैदान","Golibar Maidan","GOMAI1",18.502524,73.877153,"GOMAI1"
322,"Down","गोळीबार मैदान","Golibar Maidan","GOMAI2",18.502116,73.875946,"GOMAI2"
323,"UP","गोंधळेनगर","Gondhalenagar","GONDH1",18.493831,73.946983,"GONDH1"
324,"Down","गोंधळे नगर","Gondhalenagar","GONDH2",18.494793,73.94599,"GONDH2"
325,"UP","गुडलक चौक","Goodluck Chowk","GOCHO1",18.518744,73.841398,"GOCHO1"
326,"UP","गोविंद यशदा चौक","Govind Yashada Chowk","GOYAC2",18.596773,73.802083,"GOYAC2"
327,"Down","गोविंद यशदा चौक","Govind Yashada Chowk","GOYAC1",18.597068,73.802292,"GOYAC1"
328,"UP","जी.पी.ओ.","GPO","GPO002",18.523591,73.875318,"GPO002"
329,"Down","जी.पी.ओ.","GPO","GPO001",18.523591,73.875318,"GPO001"
330,"UP","ग्रीन ओक्स कंपनी","Green Oaks Company","GROAC2",18.564704,73.918117,"GROAC2"
331,"Down","ग्रीन ओक्स कंपनी","Green Oaks Company","GROAC1",18.564574,73.918214,"GROAC1"
332,"UP","गार्डरूम","Guardroom","GUARD2",18.568585,73.897294,"GUARD2"
333,"Down","गार्डरूम","Guardroom","GUARD1",18.568319,73.897202,"GUARD1"
334,"UP","गुंजन कॉर्नर","Gunjan Corner","GUCOR2",18.54574,73.8880633,"GUCOR2"
335,"Down","गुंजन कॉर्नर","Gunjan Corner","GUCOR1",18.545703,73.888103,"GUCOR1"
336,"UP","गुप्ता स्टील","Gupta Steel","GUSTE2",18.662625,74.091272,"GUSTE2"
337,"Down","गुप्ता  स्टील","Gupta Steel","GUSTE1",18.662625,74.091272,"GUSTE1"
338,"UP","गुरु गणेशनगर","Guru Ganeshnagar","GUGAN2",18.503028,73.799295,"GUGAN2"
339,"Down","गुरु गणेशनगर","Guru Ganeshnagar","GUGAN1",18.50294,73.79942,"GUGAN1"
340,"UP","गुरूप्रसाद बंगला","Guruprasad Bungalow","GUBUN2",18.536776,73.880954,"GUBUN2"
341,"UP","एच.ए.","HA","HA0001",18.620768,73.81072,"HA0001"
342,"Down","एच.ए.","HA","HA0002",18.620791,73.810084,"HA0002"
343,"UP","हडपसर गाडीतळ","Hadapsar Gadital","HAGAD1",18.50023,73.938658,"HAGAD1"
344,"Down","हडपसर गाडीतळ","Hadapsar Gadital","HAGAD2",18.500881,73.938931,"HAGAD2"
345,"UP","हडपसरगांव","Hadapsargaon","HADAP1",18.50153,73.930777,"HADAP1"
346,"Down","हडपसरगांव","Hadapsargaon","HADAP2",18.501774,73.933137,"HADAP2"
347,"UP","एचडीएफसी","HDFC","HDFC01",18.65455,73.803215,"HDFC01"
348,"Down","एचडीएफसी","HDFC","HDFC02",18.65464,73.803403,"HDFC02"
349,"UP","हिंगणे","Hingne","HINGN1",18.481473,73.825964,"HINGN1"
351,"Down","हिंगणे","Hingne","HINGN2",18.480242,73.825336,"HINGN2"
353,"UP","हिंजवडी जकात नाका","Hinjawadi Jakat Naka","HIJAN1",18.59082,73.746846,"HIJAN1"
354,"Down","हिंजवडी जकात नाका","Hinjawadi Jakat Naka","HIJAN2",18.590977,73.746943,"HIJAN2"
355,"UP","हिंजवडी माण फेज ३","Hinjawadi Maan Phase 3","HIMAP1",18.576539,73.688389,"HIMAP1"
356,"Down","हिंजवडी माण फेज ३","Hinjawadi Maan Phase 3","HIMAP2",18.576553,73.688178,"HIMAP2"
357,"UP","हिंजवडीगांव","Hinjawadigaon","HINJA1",18.59168,73.739043,"HINJA1"
358,"Down","हिंजवडीगांव","Hinjawadigaon","HINJA2",18.591702,73.739,"HINJA2"
359,"UP","हिराबाग","Hirabaug","HIRAB1",18.50435,73.8548,"HIRAB1"
360,"UP","होळकर पुल कॉर्नर","Holkar Pul Corner","HOPUC2",18.552882,73.864516,"HOPUC2"
361,"Down","होळकर पुल कॉर्नर","Holkar Pul Corner","HOPUC1",18.552622,73.865206,"HOPUC1"
362,"UP","होळकर वॉटर वर्क्स","Holkar water works","HOWAW2",18.557016,73.858665,"HOWAW2"
363,"Down","होळकर वॉटर वर्क्स","Holkar water works","HOWAW1",18.55669,73.859787,"HOWAW1"
364,"UP","होम गार्ड","Homegaurd","HOMEG2",18.55611,73.875129,"HOMEG2"
365,"Down","होम गार्ड","Homegaurd","HOMEG1",18.55611,73.875129,"HOMEG1"
366,"UP","आयबीएम","IBM","IBM002",18.489303,73.950519,"IBM002"
367,"Down","आय बी एम","IBM","IBM001",18.489437,73.950599,"IBM001"
368,"UP","आयडियल कॉलनी","Ideal Colony","IDCOL2",18.510772,73.818573,"IDCOL2"
369,"Down","आयडियल कॉलनी","Ideal Colony","IDCOL1",18.510252,73.817509,"IDCOL1"
370,"Down","इनकम टॅक्स ऑफिस","Income Tax Office","INTAO2",18.525427,73.876599,"INTAO2"
371,"Down","इनकम टॅक्स ऑफिस","Income Tax Office","INTAO1",18.525427,73.876599,"INTAO1"
372,"UP","इंडियन कार्ड ","Indian Card","INCAR2",18.616598,73.813633,"INCAR2"
373,"Down","इंडियन कार्ड ","Indian Card","INCAR1",18.615937,73.814825,"INCAR1"
374,"UP","इंडियन ह्युम पाईप","Indian Hume Pipe","INHUP2",18.470432,73.82037,"INHUP2"
375,"Down","इंडियन ह्युम पाईप","Indian Hume Pipe","INHUP1",18.470329,73.820517,"INHUP1"
376,"UP","इंदिरानगर","Indiranagar","INDIR2",18.641185,73.783027,"INDIR2"
377,"Down","इंदिरानगर","Indiranagar","INDIR1",18.641187,73.783319,"INDIR1"
378,"UP","इंद्रायणी नगर कॉर्नर","Indrayaninagar Corner","INCOR2",18.629477,73.832726,"INCOR2"
379,"Down","इंद्रायणीनगर कॉर्नर","Indrayaninagar Corner","INCOR1",18.629477,73.832726,"INCOR1"
380,"UP","इन्फोसीस फेज 1","Infosys Phase 1","INPH12",18.58637,73.733315,"INPH12"
381,"Down","इन्फोसिसिफेज 1","Infosys Phase 1","INPH11",18.586352,73.733913,"INPH11"
382,"UP","इन्फोसीस फेज 2","Infosys Phase 2","INPH22",18.593536,73.708345,"INPH22"
383,"Down","इन्फोसिसिफेज 2","Infosys Phase 2","INPH21",18.593475,73.707658,"INPH21"
384,"UP","आयटी टॉवर","IT Tower","ITTOW2",18.550078,73.939628,"ITTOW2"
385,"Down","आयटी टॉवर","IT Tower","ITTOW1",18.549865,73.94029,"ITTOW1"
386,"UP","आयटीआय तळेगाव ढमढेरे","ITI Talegaon Dhamdhere","ITTAD2",18.670997,74.14648,"ITTAD2"
387,"Down","आयटीआय तळेगाव ढमढेरे","ITI Talegaon Dhamdhere","ITTAD1",18.670997,74.14648,"ITTAD1"
388,"UP","जाधव वस्ती","Jadhavvasti","JADHA2",18.59205,74.00307,"JADHA2"
389,"Down","जाधववस्ती","Jadhavvasti","JADHA1",18.59205,74.00307,"JADHA1"
390,"UP","जगताप डेअरी","Jagtap Dairy","JADAI2",18.593295,73.784213,"JADAI2"
391,"Down","जगताप डेअरी","Jagtap Dairy","JADAI1",18.593459,73.784509,"JADAI1"
392,"UP","जगताप डेअरी लोणीकंद","Jagtap Dairy Lonikand","JADAL2",18.6158608,74.0192332,"JADAL2"
393,"Down","जगताप डेअरी लोणीकंद","Jagtap Dairy Lonikand","JADAL1",18.6158608,74.0192332,"JADAL1"
394,"UP","जगतापवस्ती","Jagtapvasti","JAGTA2",18.630682,74.03924,"JAGTA2"
395,"Down","जगतापवस्ती","Jagtapvasti","JAGTA1",18.630682,74.03924,"JAGTA1"
396,"UP","जय भवानीनगर","Jai Bhavaninagar","JABHA2",18.509517,73.812489,"JABHA2"
397,"Down","जय भवानीनगर","Jai Bhavaninagar","JABHA1",18.508503,73.81067,"JABHA1"
398,"UP","जय गणेश व्हिजन","Jai Ganesh Vision","JAGAV2",18.648542,73.785029,"JAGAV2"
399,"Down","जय गणेश व्हिजन","Jai Ganesh Vision","JAGAV1",18.647632,73.785088,"JAGAV1"
400,"UP","जयदेवनगर","Jaidevnagar","JAIDE2",18.48944,73.830992,"JAIDE2"
401,"Down","जयदेवनगर","Jaidevnagar","JAIDE1",18.488766,73.830231,"JAIDE1"
402,"UP","जकतेवस्ती","Jakatevasti","JAKAT2",18.688382,74.126058,"JAKAT2"
403,"Down","जकतेवस्ती","Jakatevasti","JAKAT1",18.688382,74.126058,"JAKAT1"
404,"UP","जनकबाबा दर्गा","Janakbaba Darga","JADAR2",18.56552833,73.94392333,"JADAR2"
405,"Down","जनकबाबा दर्गा","Janakbaba Darga","JADAR1",18.565467,73.94408,"JADAR1"
406,"UP","जवळकरनगर","Javalkarnagar","JAVAL2",18.60009791,73.81315527,"JAVAL2"
407,"Down","जवळकरनगर","Javalkarnagar","JAVAL1",18.60020506,73.81313705,"JAVAL1"
408,"UP","जयश्री  टॉकीज","Jayshree Talkies","JATAL2",18.64196,73.79202,"JATAL2"
409,"Down","जयश्री  टॉकीज","Jayshree Talkies","JATAL1",18.6419117,73.7926867,"JATAL1"
410,"Down","जहांगीर हॉस्पिटल","Jehangir Hospital","JEHOS2",18.532523,73.877463,"JEHOS2"
411,"UP","जिजामाताबाग","Jijamatabaug","JIJAM1",18.518821,73.858364,"JIJAM1"
412,"Down","जिजामाताबाग","Jijamatabaug","JIJAM2",18.518609,73.856971,"JIJAM2"
413,"Down","जिल्हा परिषद","Jilha Parishad","JIPAR1",18.523333,73.869069,"JIPAR1"
414,"UP","जिल्हा परिषद  बँक","Jilha Parishad Bank","JIPAB2",18.523072,73.870589,"JIPAB2"
415,"Down","जिल्हा परिषद बँक","Jilha Parishad Bank","JIPAB1",18.52312,73.870702,"JIPAB1"
416,"UP","जोग इंगजिनीरिंग","Jog Enggineering","JOENG2",18.544811,73.930828,"JOENG2"
417,"Down","जोग इंगजिनीरिंग","Jog Enggineering","JOENG1",18.547792,73.929866,"JOENG1"
418,"UP","जुना पुलगेट","Juna Pulgate","JUPUL2",18.508629,73.879463,"JUPUL2"
419,"Down","जुना पुलगेट","Juna Pulgate","JUPUL1",18.507808,73.879415,"JUPUL1"
420,"UP","कचरा डेपो कोथरुड ","Kachara Depot Kothrud","KADEK2",18.507639,73.799208,"KADEK2"
421,"Down","कचरा डेपो कोथरुड ","Kachara Depot Kothrud","KADEK1",18.507395,73.799863,"KADEK1"
422,"UP","कैलास मार्केट","Kailas Market","KAIMA2",18.567976,73.912547,"KAIMA2"
423,"Down","कैलास मार्केट","Kailas Market","KAIMA1",18.567815,73.914777,"KAIMA1"
424,"UP","काळाखडक वसाहत","Kala Khadak Vasahat","KAKHV2",18.610492,73.759623,"KAKHV2"
425,"Down","काळाखडक वसाहत","Kala Khadak Vasahat","KAKHV1",18.610465,73.759434,"KAKHV1"
426,"UP","कळस","Kalas","KALAS2",18.579815,73.87626,"KALAS2"
427,"Down","कळस","Kalas","KALAS1",18.579819,73.876346,"KALAS1"
428,"UP","काळभोरनगर","Kalbhornagar","KALBH2",18.646015,73.7886,"KALBH2"
429,"Down","काळभोर नगर","Kalbhornagar","KALBH1",18.6468694,73.7884297,"KALBH1"
430,"UP","काळेवाडी फाटा","Kalewadi Phata","KAPHA2",18.604094,73.776362,"KAPHA2"
431,"Down","काळेवाडी फाटा","Kalewadi Phata","KAPHA1",18.604538,73.775959,"KAPHA1"
432,"UP","कल्पतरू सोसायटी","Kalpataru Society","KASOC2",18.60179768,73.81618294,"KASOC2"
433,"Down","कल्पतरू सोसायटी","Kalpataru Society","KASOC1",18.60190356,73.81619255,"KASOC1"
434,"UP","काळूबाई मंदीर रामटेकडी","Kalubai Mandir Ramtekdi","KABMA2",18.506455,73.907477,"KABMA2"
435,"Down","काळूबाई मंदीर रामटेकडी","Kalubai Mandir Ramtekdi","KABMA1",18.506535,73.90651,"KABMA1"
436,"UP","कल्याणी फोर्ज नगर रोड","Kalyani Forge Nagar Road","KAFON2",18.656931,74.082584,"KAFON2"
437,"Down","कल्याणी फोर्ज नगर रोड","Kalyani Forge Nagar Road","KAFON1",18.656931,74.082584,"KAFON1"
438,"UP","कमलनयन बजाज स्कूल","Kamalnayan Bajaj School","KABAS2",18.658834,73.796619,"KABAS2"
439,"Down","कमलनयन बजाज स्कूल","Kamalnayan Bajaj School","KABAS1",18.659317,73.796196,"KABAS1"
440,"UP","करण पार्क","Karan Park","KAPAR2",18.555112,73.920766,"KAPAR2"
441,"Down","करण पार्क","Karan Park","KAPAR1",18.555067,73.920763,"KAPAR1"
442,"UP","कारभार कंपनी","Karhar Company","KACOM2",18.553319,73.928686,"KACOM2"
443,"Down","कारभार कंपनी","Karhar Company","KACOM1",18.552925,73.928671,"KACOM1"
444,"UP","कर्वे बंगला","Karve Bungalow","KABUN2",18.5116521,73.8292096,"KABUN2"
445,"Down","कर्वे बंगला","Karve Bungalow","KABUN1",18.510195,73.83019,"KABUN1"
447,"UP","कर्वे पुतळा","Karve Putala","KAPUT1",18.502398,73.816497,"KAPUT1"
448,"Down","कर्वे पुतळा","Karve Putala","KAPUT3",18.50177,73.814902,"KAPUT3"
449,"Down","कर्वे पुतळा","Karve Putala","KAPUT2",18.502023,73.814799,"KAPUT2"
450,"UP","कर्वेनगर","Karvenagar","KARVE2",18.489301,73.814452,"KARVE2"
451,"Down","कर्वेनगर","Karvenagar","KARVE1",18.489405,73.814742,"KARVE1"
452,"UP","कासारवाडी","Kasarwadi","KASAR2",18.604249,73.824399,"KASAR2"
453,"Down","कासारवाडी","Kasarwadi","KASAR1",18.604412,73.824906,"KASAR1"
454,"Down","कसबा पेठ पोलीस चौकी","Kasba Peth Police Chowky","KASEP2",18.520398,73.85587,"KASEP2"
455,"UP","कसपटे  चौक","Kaspate Chowk","KACHO1",18.58970111,73.77849683,"KACHO1"
456,"Down","कसपटे चौक","Kaspate Chowk","KACHO2",18.58977661,73.77852609,"KACHO2"
457,"UP","कस्तुरबा गांधी जनरल हॉस्पिटल","Kasturba Gandhi General Hospital","KAGAG1",18.573011,73.881662,"KAGAG1"
458,"Down","कस्तुरबा गांधी जनरल हॉस्पिटल","Kasturba Gandhi General Hospital","KAGAG2",18.573189,73.882037,"KAGAG2"
459,"UP","कस्तुरबा गांधी वसाहत","Kasturba Gandhi Vasahat","KAGAV1",18.555013,73.81882,"KAGAV1"
460,"Down","कस्तुरबा गांधी वसाहत","Kasturba Gandhi Vasahat","KAGAV2",18.555146,73.818967,"KAGAV2"
461,"UP","कस्तुरी मार्केट","Kasturi Market","KAMAR1",18.664373,73.795122,"KAMAR1"
462,"Down","कस्तुरी मार्केट","Kasturi Market","KAMAR2",18.664381,73.79524,"KAMAR2"
463,"UP","कस्तुरी शिक्षण संस्था","Kasturi Shikshan Sanstha","KASHS1",18.698905,74.139532,"KASHS1"
464,"Down","कस्तुरी शिक्षण संस्था","Kasturi Shikshan Sanstha","KASHS2",18.699271,74.136141,"KASHS2"
465,"UP","काटे पाटील चौक","Kate Patil Chowk","KAPAC1",18.599438,73.807052,"KAPAC1"
466,"Down","काटे पाटील चौक","Kate Patil Chowk","KAPAC2",18.599456,73.807442,"KAPAC2"
467,"UP","काटे पेट्रोल पंप","Kate Petrol Pump","KAPEP1",18.592845,73.801594,"KAPEP1"
468,"Down","काटे पेट्रोल पंप","Kate Petrol Pump","KAPEP2",18.592649,73.801894,"KAPEP2"
469,"UP","कात्रज","Katraj","KATRA1",18.4476,73.8585,"KATRA1"
470,"Down","कात्रज","Katraj","KATRA2",18.446651,73.859105,"KATRA2"
471,"UP","केकान गॅस","Kekan gas","KEGAS1",18.574638,73.895561,"KEGAS1"
472,"Down","केकान गॅस","Kekan gas","KEGAS2",18.57476,73.895605,"KEGAS2"
473,"UP","केईएम हॉस्पीटल","KEM Hospital","KEHOS1",18.520065,73.8678433,"KEHOS1"
474,"Down","केईएम हॉस्पीटल","KEM Hospital","KEHOS2",18.520358,73.867655,"KEHOS2"
475,"UP","केंद्रीय विद्यालय संगमवाडी","Kendriya Vidyalaya Sangamwadi","KEVIS1",18.545414,73.876262,"KEVIS1"
476,"Down","केंद्रीय विद्यालय संगमवाडी","Kendriya Vidyalaya Sangamwadi","KEVIS2",18.545414,73.876262,"KEVIS2"
477,"UP","केसरीवाडा","Kesariwada","KESAR1",18.516253,73.848912,"KESAR1"
478,"UP","केसनंद फाटा","Kesnand Phata","KEPHA2",18.581185,73.987277,"KEPHA2"
479,"Down","केसनंद फाटा","Kesnand Phata","KEPHA1",18.58076,73.987652,"KEPHA1"
480,"UP","खडकी बाजार","Khadki Bazar","KHBAZ2",18.566474,73.84844,"KHBAZ2"
481,"Down","खडकी बाजार","Khadki Bazar","KHBAZ1",18.56669,73.848951,"KHBAZ1"
482,"UP","खांदवे नगर ","Khandvenagar","KHAND2",18.572087,73.954916,"KHAND2"
483,"Down","खांदवे नगर ","Khandvenagar","KHAND1",18.572062,73.955205,"KHAND1"
484,"UP","खराडी बायपास","Kharadi Bypass","KHBYP2",18.5624035,73.937675,"KHBYP2"
485,"Down","खराडी बायपास","Kharadi Bypass","KHBYP1",18.5624035,73.937675,"KHBYP1"
486,"UP","खराडी गाव","Kharadi Gaon","KHGAO2",18.548867,73.94194,"KHGAO2"
487,"Down","खराडी गाव","Kharadi Gaon","KHGAO1",18.547737,73.946138,"KHGAO1"
488,"UP","खराळवाडी","Kharalwadi","KHARA2",18.623265,73.808003,"KHARA2"
489,"Down","खराळवाडी","Kharalwadi","KHARA1",18.623384,73.807896,"KHARA1"
490,"UP","खरडकरनगर","Khardkarnagar","KHARD2",,,"KHARD2"
491,"Down","खरडकरनगर","Khardkarnagar","KHARD1",,,"KHARD1"
492,"UP","खुळेवाडी","Khulewadi","KHULE2",18.568434,73.934222,"KHULE2"
493,"Down","खुळेवाडी","Khulewadi","KHULE1",18.56847,73.934233,"KHULE1"
494,"UP","किर्लोस्कर प्रेस","Kirloskar Press","KIPRE2",18.49662,73.859306,"KIPRE2"
495,"Down","किर्लोस्कर प्रेस","Kirloskar Press","KIPRE1",18.496603,73.859874,"KIPRE1"
496,"UP","किर्तनेबाग","Kirtanebaug","KIRTA2",18.523127,73.932197,"KIRTA2"
497,"Down","किर्तनेबाग","Kirtanebaug","KIRTA1",18.523369,73.932291,"KIRTA1"
498,"UP","कोकणे चौक","Kokane Chowk","KOCHO2",18.59756,73.79078,"KOCHO2"
499,"Down","कोकणे चौक","Kokane Chowk","KOCHO1",18.597642,73.790316,"KOCHO1"
500,"UP","कोणार्क कॅम्पस","Konark Campus","KOCAM2",18.570636,73.911187,"KOCAM2"
501,"Down","कोणार्क कॅम्पस","Konark Campus","KOCAM1",18.570814,73.9112,"KOCAM1"
502,"UP","कोणार्कनगर","Konarknagar","KONAR2",18.566576,73.910901,"KONAR2"
503,"Down","कोणार्कनगर","Konarknagar","KONAR1",18.566456,73.910849,"KONAR1"
504,"UP","कोरेगांव भिमा","Koregaon Bhima","KOBHI2",18.645889,74.059924,"KOBHI2"
505,"Down","कोरेगांव भिमा","Koregaon Bhima","KOBHI1",18.645889,74.059924,"KOBHI1"
506,"UP","कोथरुड डेपो","Kothrud Depot","KODEP2",18.507263,73.794642,"KODEP2"
507,"Down","कोथरुड डेपो","Kothrud Depot","KODEP1",18.507848,73.79499,"KODEP1"
508,"UP","कोथरुड स्टॅन्ड","Kothrud Stand","KOSTA2",18.499951,73.813476,"KOSTA2"
509,"Down","कोथरुड स्टॅन्ड","Kothrud Stand","KOSTA1",18.499951,73.813476,"KOSTA1"
510,"UP","कृष्ण मंदिर निगडी","Krushna Mandir Nigdi","KRMAN2",18.663446,73.773678,"KRMAN2"
511,"Down","कृष्ण मंदिर निगडी","Krushna Mandir Nigdi","KRMAN1",18.663446,73.773678,"KRMAN1"
512,"UP","कृष्णानगर","Krushnanagar","KRUSH2",18.667244,73.78885,"KRUSH2"
513,"Down","कृष्णानगर","Krushnanagar","KRUSH1",18.667328,73.7884,"KRUSH1"
514,"UP","कृष्णानगर कॉर्नर","Krushnanagar Corner","KRCOR2",18.66668,73.795761,"KRCOR2"
515,"Down","कृष्णानगर कॉर्नर","Krushnanagar Corner","KRCOR1",18.666644,73.795881,"KRCOR1"
516,"UP","केएसबी चौक","KSB Chowk","KSCHO2",18.650748,73.80877,"KSCHO2"
517,"Down","केएसबी चौक","KSB Chowk","KSCHO1",18.650335,73.809879,"KSCHO1"
518,"UP","कुलकर्णी पेट्रोल पंप","Kulkarni Petrol Pump","KUPEP2",18.51289,73.844842,"KUPEP2"
519,"Down","कुलकर्णी पेट्रोल पंप","Kulkarni Petrol Pump","KUPEP1",18.512894,73.843946,"KUPEP1"
520,"UP","कुंबरे पार्क","Kumbare Park","KUPAR2",18.503207,73.79788,"KUPAR2"
521,"Down","कुंबरे पार्क","Kumbare Park","KUPAR1",18.503151,73.797887,"KUPAR1"
522,"UP","कुंभारवाडा","Kumbharwada","KUMBH2",18.524684,73.859098,"KUMBH2"
523,"Down","कुंभारवाडा","Kumbharwada","KUMBH1",18.524679,73.85872,"KUMBH1"
524,"UP","कुणाल आयकॉन","Kunal Icon","KUICO2",18.594158,73.790932,"KUICO2"
525,"Down","कुणाल आयकॉन","Kunal Icon","KUICO1",18.594144,73.791087,"KUICO1"
526,"UP","लक्ष्मणनगर","Lakshman Nagar","LANAG2",18.611298,73.768424,"LANAG2"
527,"Down","लक्ष्मणनगर","Lakshman Nagar","LANAG1",18.611483,73.768667,"LANAG1"
528,"UP","लांडेवाडी","Landewadi","LANDE2",18.6206654,73.840835,"LANDE2"
529,"Down","लांडेवाडी","Landewadi","LANDE1",18.620724,73.8440893,"LANDE1"
530,"UP","लॉ कॉलेज","Law College","LACOL2",18.516093,73.829013,"LACOL2"
531,"Down","लॉ कॉलेज","Law College","LACOL1",18.517247,73.829223,"LACOL1"
532,"UP","लक्ष्मणनगर","Laxmannagar","LAXMA2",18.611298,73.768424,"LAXMA2"
533,"Down","लक्ष्मणनगर","Laxmannagar","LAXMA1",18.611483,73.768667,"LAXMA1"
534,"UP","लक्ष्मी कॉलनी","Laxmi Colony","LAXCO2",18.49806,73.95791,"LAXCO2"
535,"Down","लक्ष्मी कॉलनी","Laxmi Colony","LAXCO1",18.4984,73.957107,"LAXCO1"
536,"UP","लक्ष्मी मंदिर","Laxmi Mandir","LAMAN2",18.681638,74.141913,"LAMAN2"
537,"Down","लक्ष्मी मंदिर","Laxmi Mandir","LAMAN1",18.681638,74.141913,"LAMAN1"
538,"UP","लक्ष्मीनगर कॉर्नर","Laxminagar Corner","LACOR2",18.492155,73.849734,"LACOR2"
539,"Down","लक्ष्मीनगर कॉर्नर","Laxminagar Corner","LACOR1",18.492622,73.850622,"LACOR1"
540,"UP","लक्ष्मीनारायण टॉकीज","Laxminarayan Talkies","LATAL2",18.4962,73.858,"LATAL2"
541,"Down","लक्ष्मीनारायण टॉकीज","Laxminarayan Talkies","LATAL1",18.4970009,73.8581605,"LATAL1"
542,"UP","एल आय सी कॉर्नर","LIC Corner","LICOR2",18.661823,73.781192,"LICOR2"
543,"Down","एल आय सी कॉर्नर","LIC Corner","LICOR1",18.661925,73.781004,"LICOR1"
544,"UP","लोकमंगल","Lokmangal","LOKMA2",18.529994,73.850698,"LOKMA2"
545,"Down","लोकमंगल","Lokmangal","LOKMA1",,,"LOKMA1"
546,"UP","लोकमान्य हॉस्पिटल","Lokmanya Hospital","LOHOS2",18.636574,73.789114,"LOHOS2"
547,"Down","लोकमान्य हॉस्पिटल","Lokmanya Hospital","LOHOS1",18.63628,73.789121,"LOHOS1"
548,"UP","लोणीकंद","Lonikand","LONIK2",18.620656,74.024809,"LONIK2"
549,"Down","लोणीकंद","Lonikand","LONIK1",18.620656,74.024809,"LONIK1"
550,"UP","मनपा","Ma Na Pa","MANAP2",18.5223076,73.8525531,"MANAP2"
551,"Down","मनपा","Ma Na Pa","MANAP1",18.522409,73.852753,"MANAP1"
552,"UP","मनपा शाळा वाकड","Ma Na Pa Shala Wakad","MANAS2",18.594519,73.77366,"MANAS2"
553,"Down","मनपा शाळा वाकड","Ma Na Pa Shala Wakad","MANAS1",18.594453,73.77355,"MANAS1"
554,"UP","मफतलाल बंगला","Mafatlal Bungalow","MABUN2",18.536487,73.836493,"MABUN2"
555,"UP","मगरपट्टा दवाखाना","Magarpatta Dawakhana","MADAW1",18.502609,73.926629,"MADAW1"
556,"Down","मगरपट्टा दवाखाना","Magarpatta Dawakhana","MADAW2",18.502579,73.927758,"MADAW2"
557,"UP","मगरपट्टा म.न.पा. शाळा","Magarpatta Ma Na Pa Shala","MAMAN1",18.512321,73.93235,"MAMAN1"
558,"Down","मगरपट्टा म.न.पा. शाळा","Magarpatta Ma Na Pa Shala","MAMAN2",18.512158,73.932533,"MAMAN2"
559,"UP","मॅगझीन","Magzine","MAGZI1",18.633258,73.87479,"MAGZI1"
560,"Down","मॅगझीन","Magzine","MAGZI2",18.63351,73.874876,"MAGZI2"
561,"UP","महादेव मंदिर पिंपळे सौदागर","Mahadev Mandir Pimple Saudagar","MAMAP1",18.601772,73.799366,"MAMAP1"
562,"Down","महादेव मंदिर पिंपळे सौदागर","Mahadev Mandir Pimple Saudagar","MAMAP2",18.602028,73.799867,"MAMAP2"
563,"UP","महाराष्ट्र  चौक","Maharashtra Chowk","MACHO1",18.624276,73.85691,"MACHO1"
564,"Down","महाराष्ट्र चौक","Maharashtra Chowk","MACHO2",18.624179,73.856257,"MACHO2"
565,"UP","महर्षीनगर","Maharshinagar","MAHAR1",18.492113,73.862913,"MAHAR1"
566,"Down","महर्षीनगर","Maharshinagar","MAHAR2",18.492113,73.862913,"MAHAR2"
567,"UP","महर्षीनगर  शाळा","Maharshinagar Shala","MASHA1",18.492395,73.866214,"MASHA1"
568,"Down","महर्षीनगर  शाळा","Maharshinagar Shala","MASHA2",18.492395,73.866214,"MASHA2"
569,"UP","महात्मागांधी बस स्टॅन्ड","MahatmaGandhi Bas Stand","MABAS1",18.506288,73.88228,"MABAS1"
570,"Down","महात्मागांधी बस स्टॅन्ड","MahatmaGandhi Bas Stand","MABAS2",18.506257,73.882003,"MABAS2"
571,"UP","महावीरनगर","Mahavirnagar","MAHAV1",18.54686,73.92415,"MAHAV1"
572,"Down","महावीरनगर","Mahavirnagar","MAHAV2",18.54686,73.92415,"MAHAV2"
573,"UP","माळवाडी","Malwadi","MALWA1",18.480367,73.801004,"MALWA1"
574,"Down","माळवाडी","Malwadi","MALWA2",18.480232,73.800964,"MALWA2"
575,"UP","मानाजीबाग","Manajibaug","MANAJ1",18.569856,73.841761,"MANAJ1"
576,"Down","मानाजीबाग","Manajibaug","MANAJ2",18.569828,73.841737,"MANAJ2"
577,"UP","माणिक बाग","Manikbaug","MANIK1",18.47167,73.820864,"MANIK1"
579,"Down","माणिकबाग","Manikbaug","MANIK2",18.473245,73.82165,"MANIK2"
580,"UP","मांजरी फार्म","Manjari Farm","MAFAR2",18.496726,73.967641,"MAFAR2"
581,"Down","मांजरी फार्म","Manjari Farm","MAFAR1",18.496678,73.967656,"MAFAR1"
582,"UP","मानकर चौक","Mankar Chowk","MANCH2",18.58975243,73.77431346,"MANCH2"
583,"Down","मानकर चौक","Mankar Chowk","MANCH1",18.58998225,73.77439317,"MANCH1"
584,"UP","मार्शल","Marshal","MARSH2",18.601114,73.826897,"MARSH2"
585,"Down","मार्शल","Marshal","MARSH1",18.601342,73.826247,"MARSH1"
586,"Down","मारुती मंदिर","Maruti Mandir","MAMAD2",18.503564,73.820344,"MAMAD2"
587,"UP","मारुती मंदिर कोथरूड","Maruti Mandir Kothrud","MAMAK1",18.503793,73.82036,"MAMAK1"
588,"Down","मारुती मंदिर कोथरूड","Maruti Mandir Kothrud","MAMAK2",18.503564,73.820344,"MAMAK2"
589,"UP","मॅच वेल कंपनी","Match Well Company","MAWEC1",18.549633,73.918628,"MAWEC1"
590,"Down","मॅच वेल कंपनी","Match Well Company","MAWEC2",18.549643,73.918525,"MAWEC2"
591,"UP","माती गणपती","Mati Ganpati","MAGAN1",18.515806,73.846891,"MAGAN1"
592,"Down","माती गणपती","Mati Ganpati","MAGAN2",18.515966,73.847374,"MAGAN2"
593,"UP","मिरा सोसायटी","Meera Society","MESOC1",18.50188,73.8705738,"MESOC1"
594,"Down","मिरा सोसायटी","Meera Society","MESOC2",18.501637,73.87061,"MESOC2"
595,"UP","मेगा सिटी","Mega City","MECIT1",18.514142,73.932397,"MECIT1"
596,"Down","मेगा सिटी","Mega City","MECIT2",18.514119,73.932554,"MECIT2"
597,"UP","मेंटल कॉर्नर","Mental Corner","MECOR1",18.567141,73.878855,"MECOR1"
598,"Down","मेंटल कॉर्नर","Mental Corner","MECOR2",18.567363,73.878594,"MECOR2"
599,"UP","मेंटल हॉस्पिटल","Mental Hospital","MEHOS1",18.56643,73.878681,"MEHOS1"
600,"Down","मेंटल हॉस्पिटल","Mental Hospital","MEHOS2",18.566422,73.878674,"MEHOS2"
601,"UP","मॅथेडीस्ट चर्च","Methodist Church","MECHU1",18.558325,73.855065,"MECHU1"
602,"Down","मॅथेडीस्ट चर्च","Methodist Church","MECHU2",18.558482,73.854986,"MECHU2"
603,"UP","एमजी रोड पुणे कॅम्प","MG Road Pune Camp","MGROP1",18.515696,73.878766,"MGROP1"
604,"UP","म्हाडा कॉलनी विमाननगर","Mhada Colony Vimannagar","MHCOV2",18.573205,73.911853,"MHCOV2"
605,"Down","म्हाडा कॉलनी विमाननगर","Mhada Colony Vimannagar","MHCOV1",18.573293,73.911822,"MHCOV1"
606,"UP","म्हस्केवस्ती","Mhaskevasti","MHASK2",18.586571,73.87518,"MHASK2"
607,"Down","म्हस्केवस्ती","Mhaskevasti","MHASK1",18.585738,73.875292,"MHASK1"
608,"UP","म्हसोबा गेट","Mhasoba Gate","MHGAT2",18.53238,73.842327,"MHGAT2"
609,"Down","म्हसोबा गेट","Mhasoba Gate","MHGAT1",18.533121,73.841533,"MHGAT1"
610,"UP","म्हसोबा मंदीर","Mhasoba Mandir","MHMAN2",18.569268,73.866895,"MHMAN2"
611,"Down","म्हसोबा मंदीर","Mhasoba Mandir","MHMAN1",18.569252,73.8669,"MHMAN1"
612,"UP","म्हेत्रेवास्ती","Mhetrevasti","MHETR2",18.669646,73.793891,"MHETR2"
613,"Down","म्हेत्रेवास्ती","Mhetrevasti","MHETR1",18.669711,73.79389,"MHETR1"
614,"UP","एमआयडीसी","MIDC Bhosari","MIBHO2",18.620986,73.830593,"MIBHO2"
615,"Down","एमआयडीसी","MIDC Bhosari","MIBHO1",18.62069,73.831086,"MIBHO1"
616,"UP","एमआयडीसी","MIDC Pimpri","MIPIM2",18.641562,73.795592,"MIPIM2"
617,"Down","एमआयडीसी","MIDC Pimpri","MIPIM1",18.641193,73.79526,"MIPIM1"
618,"UP","एमआयटी कॉलेज","MIT College","MICOL2",18.510772,73.818573,"MICOL2"
619,"Down","मित्र मंडळ सभागृह","Mitra Mandal Sabhagruha","MIMAS1",18.498099,73.854088,"MIMAS1"
620,"UP","मॉडर्न हायस्कुल","Modern HighSchool","MOHIG2",18.524741,73.849472,"MOHIG2"
621,"Down","मॉडर्न हायस्कुल","Modern HighSchool","MOHIG1",18.524741,73.849472,"MOHIG1"
622,"UP","मोहनगर कॉर्नर","Mohanagar Corner","MOCOR2",18.642514,73.79686,"MOCOR2"
623,"Down","मोहनगर  कॉर्नर","Mohanagar Corner","MOCOR1",18.642233,73.797008,"MOCOR1"
624,"UP","मोहननगर चिंचवड ","Mohannagar Chinchwad","MOCHI2",18.644401,73.796201,"MOCHI2"
625,"Down","मोहननगर चिंचवड ","Mohannagar Chinchwad","MOCHI1",18.64441,73.796236,"MOCHI1"
626,"UP","मोरे नाट्यगृह","More Prekshagruha","MOPRE2",18.63433,73.787443,"MOPRE2"
627,"Down","मोरे नाट्यगृह","More Prekshagruha","MOPRE1",18.634162,73.787482,"MOPRE1"
628,"UP","मोरे विद्यालय","More Vidyalay","MOVID2",18.510145,73.820966,"MOVID2"
629,"Down","मोरे विद्यालय","More Vidyalay","MOVID1",18.510429,73.819538,"MOVID1"
630,"UP","मोरेबाग","Morebaug","MOREB2",18.4498468,73.8581016,"MOREB2"
631,"Down","मोरेबाग","Morebaug","MOREB1",18.449717,73.858274,"MOREB1"
632,"UP","मोरेवस्ती","Morevasti","MOREV2",18.669646,73.796398,"MOREV2"
633,"Down","मोरेवस्ती","Morevasti","MOREV1",18.670079,73.796138,"MOREV1"
634,"UP","माऊंट व्हर्ट सोसायटी वाकड ","Mount Vert Society Wakad","MOVES2",18.59013595,73.76982437,"MOVES2"
635,"Down","माऊंट व्हर्ट सोसायटी वाकड ","Mount Vert Society Wakad","MOVES1",18.59009877,73.76959295,"MOVES1"
636,"UP","मुकईचौक","Mukai Chowk","MUCHO2",18.660385,73.731722,"MUCHO2"
637,"Down","मुकई चौक","Mukai Chowk","MUCHO1",18.661385,73.731922,"MUCHO1"
638,"UP","मुकुंदनगर","Mukundnagar","MUKUN2",18.494578,73.862022,"MUKUN2"
639,"Down","मुकुंदनगर","Mukundnagar","MUKUN1",18.494578,73.862022,"MUKUN1"
640,"UP","मुळा हाऊस","Mula House","MUHOU2",18.573052,73.86694,"MUHOU2"
641,"Down","मुळा हाऊस","Mula House","MUHOU1",18.571047,73.866983,"MUHOU1"
642,"UP","मुंढवा गाव","Mundhwagaon","MUNDH2",18.532515,73.932805,"MUNDH2"
643,"Down","मुंढवा गाव","Mundhwagaon","MUNDH1",18.532468,73.932892,"MUNDH1"
644,"UP","नागपूर चाळ","Nagpur Chawl","NACHA2",18.564038,73.893448,"NACHA2"
645,"Down","नागपूर चाळ","Nagpur Chawl","NACHA1",18.563305,73.893176,"NACHA1"
646,"UP","नळ स्टॉप","Nal Stop","NASTO2",18.509094,73.832077,"NASTO2"
647,"Down","नळ स्टॉप","Nal Stop","NASTO1",18.508951,73.832032,"NASTO1"
648,"UP","नाना पेठ","Nana Peth","NAPET2",18.514914,73.868597,"NAPET2"
649,"Down","नाना पेठ","Nana Peth","NAPET1",18.514827,73.868713,"NAPET1"
650,"UP","नाशिक फाटा","Nashik Phata","NAPHA2",18.607926,73.821157,"NAPHA2"
651,"Down","नाशिक फाटा","Nashik Phata","NAPHA1",18.608172,73.821505,"NAPHA1"
652,"Down","नटराज स्टॅन्ड ","Natraj Stand","NASTA2",18.5008033,73.85722,"NASTA2"
653,"Down","नटराज टॉकीज ","Natraj Talkies","NATAL1",18.518237,73.844225,"NATAL1"
654,"UP","नातुबाग","Natubaug","NATUB2",18.4806,73.857163,"NATUB2"
655,"Down","नातुबाग","Natubaug","NATUB1",18.4814768,73.8573441,"NATUB1"
656,"UP","निता पार्क","Neeta Park","NEPAR2",18.548198,73.889053,"NEPAR2"
657,"Down","निता पार्क","Neeta Park","NEPAR1",18.54735,73.888953,"NEPAR1"
658,"Down","नेहरू स्‍टेडीयम","Nehru Stadium","NESTA2",18.50068,73.8576133,"NESTA2"
659,"UP","एनइआय","NEI","NEI001",18.563797,73.934487,"NEI001"
660,"Down","एनइआय","NEI","NEI002",18.563706,73.934493,"NEI002"
661,"UP","नेताजी हायस्कूल","Netaji Highschool","NEHIG1",18.5520172,73.8894884,"NEHIG1"
662,"Down","नेताजी हायस्कूल","Netaji Highschool","NEHIG2",18.5520172,73.8894884,"NEHIG2"
663,"UP","निगडी","Nigdi","NIGDI1",18.660643,73.775812,"NIGDI1"
664,"Down","निगडी","Nigdi","NIGDI2",18.659736,73.777132,"NIGDI2"
665,"UP","निरामय हॉस्पिटल","Niramay Hospital","NIHOS1",18.5502,73.924687,"NIHOS1"
666,"Down","निरामय हॉस्पिटल","Niramay Hospital","NIHOS2",18.550364,73.92458,"NIHOS2"
667,"UP","निसर्ग सोसायटी","Nisarga Society","NISOC1",18.598388,73.774402,"NISOC1"
668,"Down","निसर्ग सोसायटी","Nisarga Society","NISOC2",18.598998,73.774513,"NISOC2"
669,"Down","नोबल हॉस्पिटल","Noble Hospital","NOHOS1",18.505099,73.927754,"NOHOS1"
670,"UP","ऑप्टीनिका कंपनी","Optonica Company","OPCOM2",18.617768,73.841965,"OPCOM2"
671,"Down","ऑप्टीनिका कंपनी","Optonica Company","OPCOM1",18.617318,73.843903,"OPCOM1"
672,"UP","ऑर्डीनन्स क्लब","Ordinance Club","ORCLU2",18.571682,73.862958,"ORCLU2"
673,"Down","ऑर्डीनन्स क्लब","Ordinance Club","ORCLU1",18.571651,73.862927,"ORCLU1"
674,"UP","पाबळफाटा","Pabalphata","PABAL2",18.695959,74.138963,"PABAL2"
675,"Down","पाबळफाटा","Pabalphata","PABAL1",18.696118,74.139197,"PABAL1"
676,"UP","पद्मावती","Padmawati","PADMA2",18.4743,73.8563,"PADMA2"
677,"Down","पद्मावती","Padmawati","PADMA1",18.474739,73.8564119,"PADMA1"
678,"UP","पानमळा","Panmala","PANMA2",18.500046,73.843882,"PANMA2"
679,"Down","पानमळा","Panmala","PANMA1",18.500513,73.844788,"PANMA1"
680,"UP","पानमळा वाघोली","Panmala Wagholi","PAWAG2",18.579638,73.9749,"PAWAG2"
681,"Down","पानमळा वाघोली","Panmala Wagholi","PAWAG1",18.579244,73.974147,"PAWAG1"
682,"UP","पाण्याची टाकी चंदननगर","Panyachi Taki Chandannagar","PATAC2",18.56152,73.92803,"PATAC2"
683,"Down","पाण्याची टाकी चंदननगर","Panyachi Taki Chandannagar","PATAC1",18.56152,73.92803,"PATAC1"
684,"UP","पारडे ग्राउंड आळंदी रोड","Parade Ground Alandi Road","PAGRA2",18.591026,73.874205,"PAGRA2"
685,"Down","पारडे ग्राउंड आळंदी रोड","Parade Ground Alandi Road","PAGRA1",18.591016,73.87442,"PAGRA1"
686,"UP","पराज कंपनी","Paraj Company","PACOM2",18.549525,73.929373,"PACOM2"
687,"UP","परांडेनगर","Parandenagar","PARAN1",18.61778,73.874044,"PARAN1"
688,"Down","परांडेनगर","Parandenagar","PARAN2",18.617844,73.874094,"PARAN2"
689,"UP","परांजपे स्कूल","Paranjape School","PASCH1",18.502053,73.808967,"PASCH1"
690,"Down","परांजपे स्कूल","Paranjape School","PASCH2",18.501902,73.80888,"PASCH2"
691,"UP","पर्वतीदर्शन","Parvati Darshan","PADAR1",18.494364,73.854255,"PADAR1"
692,"Down","पर्वतीदर्शन","Parvati Darshan","PADAR2",18.494831,73.854312,"PADAR2"
693,"UP","पर्वती जलशुध्दीकरण केंद्र","Parvati Jalshuddhikaran Kendra","PAJAK1",18.498464,73.841433,"PAJAK1"
694,"Down","पर्वती जलशुध्दीकरण केंद्र","Parvati Jalshuddhikaran Kendra","PAJAK2",18.497932,73.840957,"PAJAK2"
695,"UP","पर्वती पायथा","Parvati Payatha","PAPAY1",18.499466,73.852656,"PAPAY1"
697,"Down","पर्वती पायथा","Parvati Payatha","PAPAY2",18.49918,73.852362,"PAPAY2"
699,"UP","पठाण बाबा दर्गा","Pathan Baba Darga","PABAD1",18.582966,73.875031,"PABAD1"
700,"Down","पठाण बाबा दर्गा","Pathan Baba Darga","PABAD2",18.582507,73.875142,"PABAD2"
701,"UP","पठारेवस्ती","Patharevasti","PATHA1",18.5587311,73.9382629,"PATHA1"
702,"Down","पठारेवस्ती","Patharevasti","PATHA2",18.5587311,73.9382629,"PATHA2"
703,"UP","पाटील कॉलनी","Patil Colony","PACOL1",18.464359,73.815494,"PACOL1"
704,"Down","पाटील कॉलनी","Patil Colony","PACOL2",18.46313,73.815072,"PACOL2"
705,"UP","पाटील इस्टेट","Patil Estate","PAEST1",18.531185,73.85422,"PAEST1"
706,"Down","पाटील इस्टेट","Patil Estate","PAEST2",18.531525,73.854225,"PAEST2"
707,"UP","पाटीलवस्ती","Patilvasti","PATIL1",18.549186,73.94285,"PATIL1"
708,"Down","पाटीलवस्ती","Patilvasti","PATIL2",18.549291,73.942527,"PATIL2"
709,"UP","पौडफाटा","Paud Phata","PAPHA1",18.505538,73.824233,"PAPHA1"
710,"Down","पौड फाटा","Paud Phata","PAPHA2",18.507255,73.823462,"PAPHA2"
711,"UP","पवारवस्ती","Pawarvasti","PAWAR1",18.624912,73.757201,"PAWAR1"
712,"Down","पवारवस्ती","Pawarvasti","PAWAR2",18.625025,73.757535,"PAWAR2"
713,"UP","पेरणे फाटा","Perne Phata","PEPHA1",18.641376,74.050805,"PEPHA1"
714,"Down","पेरणे फाटा","Perne Phata","PEPHA2",18.641376,74.050805,"PEPHA2"
715,"UP","फडके हौद","Phadke Haud","PHHAU1",18.519015,73.860349,"PHHAU1"
716,"Down","फडके हौद","Phadke Haud","PHHAU2",18.518498,73.860191,"PHHAU2"
717,"UP","फिलीप्स","Philips","PHILI1",18.620562,73.836525,"PHILI1"
718,"Down","फिलीप्स","Philips","PHILI2",18.62071,73.836538,"PHILI2"
719,"UP","फुगेवाडी","Phugewadi","PHUGE1",18.587507,73.832536,"PHUGE1"
720,"Down","फुगेवाडी","Phugewadi","PHUGE2",18.587385,73.833602,"PHUGE2"
721,"UP","फुलेनगर","Phulenagar","PHULE1",18.559774,73.876408,"PHULE1"
722,"Down","फुलेनगर","Phulenagar","PHULE2",18.559759,73.876389,"PHULE2"
723,"UP","पिंपळे सौदागर पंप","Pimple Saudagar Pump","PISAP1",18.600909,73.802723,"PISAP1"
724,"Down","पिंपळे सौदागर पंप","Pimple Saudagar Pump","PISAP2",18.600693,73.802992,"PISAP2"
725,"UP","पिंपळेगुरव","Pimplegurav","PIMPL1",18.593117,73.818872,"PIMPL1"
726,"Down","पिंपळेगुरव","Pimplegurav","PIMPL2",18.592905,73.818933,"PIMPL2"
727,"UP","पिंपळेगुरव मनपा शाळा","Pimplegurav Ma Na Pa Shala","PIMAN1",18.5752329,73.8256736,"PIMAN1"
728,"Down","पिंपळेगुरव मनपा शाळा","Pimplegurav Ma Na Pa Shala","PIMAN2",18.5907828,73.8164794,"PIMAN2"
729,"UP","पिंपरी","Pimpri","PIMPR1",18.62691,73.805406,"PIMPR1"
730,"Down","पिंपरी","Pimpri","PIMPR2",18.62691,73.805406,"PIMPR2"
731,"UP","पू ल देशपांडे उद्यान","PL Deshpande Udyan","PLDEU1",18.492907,73.834762,"PLDEU1"
732,"Down","पू ल देशपांडे उद्यान","PL Deshpande Udyan","PLDEU2",18.493834,73.836006,"PLDEU2"
733,"UP","प्लॅनेट मिलेनियम","Planet Millenium","PLMIL1",18.59293,73.800376,"PLMIL1"
734,"Down","प्लॅनेट मिलेनियम","Planet Millenium","PLMIL2",18.59343,73.79784,"PLMIL2"
735,"UP","पोलीस लाइन","Police Line","POLIN1",18.52644,73.844321,"POLIN1"
736,"UP","पोलीस लाईन फुलेनगर","Police Line Phulenagar","POLIP2",18.569266,73.86954,"POLIP2"
737,"Down","पोलीस लाईन फुलेनगर","Police Line Phulenagar","POLIP1",18.569155,73.869979,"POLIP1"
738,"UP","पोल्ट्री फार्म धायरी","Poultry Farm Dhayari","POFAD2",18.452106,73.811185,"POFAD2"
739,"Down","पोल्ट्री फार्म धायरी","Poultry Farm Dhayari","POFAD1",18.451875,73.811233,"POFAD1"
740,"UP","पॉवर हाऊस हिंजवडी","Power House Hinjawadi","POHOH2",18.588777,73.704973,"POHOH2"
741,"Down","पॉवर हाऊस हिंजवडी","Power House Hinjawadi","POHOH1",18.589022,73.704942,"POHOH1"
742,"UP","पॉवर हाऊस इंद्रायणी नगर ","Power House Indrayninagar","POHOI2",18.631961,73.830404,"POHOI2"
743,"Down","पॉवर हाऊस इंद्रायणी नगर ","Power House Indrayninagar","POHOI1",18.632605,73.830251,"POHOI1"
744,"UP","पॉवर हाऊस खडकी","Power House Khadki","POHOK2",18.56855,73.845334,"POHOK2"
745,"Down","पॉवर हाऊस खडकी","Power House Khadki","POHOK1",18.56457,73.850776,"POHOK1"
746,"UP","पद्मावती पॉवर हाऊस","Power House Padmavati","POHOP2",18.480991,73.857162,"POHOP2"
747,"Down","पद्मावती पॉवर हाऊस","Power House Padmavati","POHOP1",18.481484,73.857227,"POHOP1"
748,"UP","पॉवर हाऊस रास्तापेठ ","Power House Rastapeth","POHOR2",18.518794,73.86831,"POHOR2"
749,"Down","पॉवर हाऊस रास्तापेठ ","Power House Rastapeth","POHOR1",18.518646,73.868449,"POHOR1"
750,"UP","प्राधिकरण कॉर्नर","Pradhikaran Corner","PRCOR2",18.658447,73.777904,"PRCOR2"
751,"UP","प्रशांत सोसायटी","Prashant Society","PRSOC1",18.661755,73.79415,"PRSOC1"
752,"Down","प्रशांत सोसायटी","Prashant Society","PRSOC2",18.661744,73.794261,"PRSOC2"
753,"UP","प्रतीकनगर","Pratiknagar","PRATI1",18.508324,73.809801,"PRATI1"
754,"Down","प्रतीकनगर","Pratiknagar","PRATI2",18.508152,73.809455,"PRATI2"
755,"UP","प्रेमलोक पार्क","Premlok Park","PRPAR1",18.637674,73.782269,"PRPAR1"
756,"Down","प्रेमलोक पार्क","Premlok Park","PRPAR2",18.637232,73.78235,"PRPAR2"
757,"UP","पदमजी पेपर मिल","Pudumjee Paper Mill","PUPAM1",18.620666,73.771021,"PUPAM1"
758,"Down","पदमजी पेपर मिल","Pudumjee Paper Mill","PUPAM2",18.620555,73.771203,"PUPAM2"
759,"UP","पंपिंग स्टेशन","Pumping Station","PUSTA1",18.534846,73.83866,"PUSTA1"
760,"Down","पंपिंग स्टेशन","Pumping Station","PUSTA2",18.534976,73.838781,"PUSTA2"
761,"UP","पुनावळे कॉर्नर","Punawale Corner","PUCOR1",18.637679,73.750313,"PUCOR1"
762,"Down","पुनावळे कॉर्नर","Punawale Corner","PUCOR2",18.63834,73.750443,"PUCOR2"
763,"UP","पुणे स्टेशन","Pune Station","PUNST1",18.527538,73.872804,"PUNST1"
764,"Down","पुणे स्टेशन","Pune Station","PUNST2",18.526994,73.872806,"PUNST2"
765,"UP","पुणे स्टेशन डेपो ","Pune Station Depo","PUSTD1",18.526516,73.876827,"PUSTD1"
766,"Down","पुणे स्टेशन डेपो ","Pune Station Depo","PUSTD2",18.527068,73.876633,"PUSTD2"
767,"UP","पुणे विद्यापीठ गेट","Pune Vidhyapeeth Gate","PUVIG1",18.543632,73.827019,"PUVIG1"
768,"Down","पुणे विद्यापीठ गेट","Pune Vidhyapeeth Gate","PUVIG2",18.541161,73.83671,"PUVIG2"
769,"UP","पुण्यनगरी","Punyanagri","PUNYA1",18.54686,73.92415,"PUNYA1"
770,"Down","पुण्यनगरी","Punyanagri","PUNYA2",18.54348,73.9238,"PUNYA2"
771,"UP","रेसकोर्स","Racecourse","RACEC1",18.506299,73.890616,"RACEC1"
772,"Down","रेसकोर्स","Racecourse","RACEC2",18.506499,73.890321,"RACEC2"
773,"UP","रॅडिसन हॉटेल","Radison Hotel","RAHOT1",18.553038,73.937452,"RAHOT1"
774,"Down","रॅडिसन हॉटेल","Radison Hotel","RAHOT2",18.553146,73.937387,"RAHOT2"
775,"UP","रघुवीरनगर","Raghuveernagar","RAGHU1",18.551165,73.929,"RAGHU1"
776,"Down","रघुवीरनगर","Raghuveernagar","RAGHU2",18.551219,73.928906,"RAGHU2"
777,"UP","रहाटणी गाव","Rahatani Gaon","RAGAO1",18.602587,73.795987,"RAGAO1"
779,"Down","रहाटणी गाव","Rahatani Gaon","RAGAO2",18.60265,73.795892,"RAGAO2"
781,"UP","राहुल विडिओ","Rahul Video","RAVID1",18.555081,73.925654,"RAVID1"
782,"Down","राहुल विडिओ","Rahul Video","RAVID2",18.555136,73.925523,"RAVID2"
783,"UP","राजाराम पुल","Rajaram Pul","RAPUL1",18.487124,73.828529,"RAPUL1"
784,"Down","राजाराम पुल","Rajaram Pul","RAPUL2",18.487321,73.828872,"RAPUL2"
785,"UP","राजश्री हौसिंग","Rajashri Housing","RAHOU1",18.60472,74.01257,"RAHOU1"
786,"Down","राजश्री हौसिंग","Rajashri Housing","RAHOU2",18.60472,74.01257,"RAHOU2"
787,"UP","रक्षक चौक","Rakshak Chowk","RACHO1",18.580975,73.798629,"RACHO1"
788,"Down","रक्षक चौक","Rakshak Chowk","RACHO2",18.581265,73.798806,"RACHO2"
789,"UP","रक्षकनगर","Rakshaknagar","RAKSH1",18.551394,73.938858,"RAKSH1"
790,"Down","रक्षकनगर","Rakshaknagar","RAKSH2",18.551529,73.938972,"RAKSH2"
791,"UP","रक्षकनगर फेज 1","Rakshaknagar Phase 1","RAPH11",18.558726,73.938132,"RAPH11"
793,"Down","रक्षकनगर फेज 1","Rakshaknagar Phase 1","RAPH12",18.558817,73.938356,"RAPH12"
795,"UP","रामोशी गेट","Ramoshigate","RAMGA1",18.511087,73.868358,"RAMGA1"
797,"Down","रामोशी गेट","Ramoshigate","RAMGA2",18.509331,73.868327,"RAMGA2"
799,"UP","रामोशीवाडी","Ramoshiwadi","RAMOS1",18.527768,73.829736,"RAMOS1"
800,"Down","रामोशीवाडी","Ramoshiwadi","RAMOS2",18.524597,73.829962,"RAMOS2"
801,"UP","रामटेकडी","Ramtekdi","RAMTE1",18.506209,73.912913,"RAMTE1"
802,"Down","रामटेकडी","Ramtekdi","RAMTE2",18.506366,73.912285,"RAMTE2"
803,"UP","रामवाडी जकात नाका","Ramwadi Jakat Naka","RAJAN1",18.5549351,73.9050007,"RAJAN1"
804,"Down","रामवाडी जकात नाका","Ramwadi Jakat Naka","RAJAN2",18.5549351,73.9050007,"RAJAN2"
805,"UP","रेंजहिल्स कॉर्नर","Rangehills Corner","RACOR1",18.53753,73.8351,"RACOR1"
806,"UP","रावेत  चौक","Ravet Chowk","RAVCH2",18.644364,73.744388,"RAVCH2"
807,"Down","रावेत चौक","Ravet Chowk","RAVCH1",18.644804,73.744185,"RAVCH1"
808,"UP","रावेत  पंपिंग  स्टेशन","Ravet Pumping Station","RAPUS2",18.643249,73.749638,"RAPUS2"
809,"Down","रावेत पंपिंग स्टेशन","Ravet Pumping Station","RAPUS1",18.643523,73.749145,"RAPUS1"
811,"UP","रायकरवस्ती","Raykarvasti","RAYKA1",18.45435,73.811604,"RAYKA1"
813,"Down","रायकर वस्ती","Raykarvasti","RAYKA2",18.453936,73.811613,"RAYKA2"
814,"UP","आर. डी. कॉलनी","RD Colony","RDCOL2",18.57713,73.876413,"RDCOL2"
815,"Down","आरडी कॉलनी","RD Colony","RDCOL1",18.576766,73.876625,"RDCOL1"
816,"UP","रेणूका बंगला","Renuka Bungalow","REBUN2",18.573509,73.884586,"REBUN2"
817,"Down","रेणूका बंगला","Renuka Bungalow","REBUN1",18.573396,73.884583,"REBUN1"
818,"Down","रोज आयकॉन","Rose Icon","ROICO2",18.593191,73.798312,"ROICO2"
819,"UP","रोजलॅंड निसर्ग निर्मिती सोसायटी","Roseland Nisarga Nirmiti Society","RONIN1",18.59672868,73.79464477,"RONIN1"
820,"Down","रोजलॅंड निसर्ग निर्मिती सोसायटी","Roseland Nisarga Nirmiti Society","RONIN2",18.59682772,73.79423937,"RONIN2"
821,"UP","रोजलॅंड सोसायटी","Roseland Society","ROSOC1",18.593587,73.794728,"ROSOC1"
822,"Down","रोजलॅंड सोसायटी","Roseland Society","ROSOC2",18.59351,73.794725,"ROSOC2"
823,"UP","आरएसबी","RSB","RSB001",18.666023,74.09544,"RSB001"
824,"Down","आरएसबी","RSB","RSB002",18.666023,74.09544,"RSB002"
825,"UP","आर.टी.ओ.","RTO","RTO001",18.529621,73.862395,"RTO001"
826,"Down","आर.टी.ओ.","RTO","RTO002",18.529854,73.8627,"RTO002"
827,"UP","रूबी हॉल","Ruby Hall","RUHAL1",18.5329914,73.8779678,"RUHAL1"
828,"UP","रुस्टन कंपनी","Ruston Company","RUCOM2",18.6485867,73.7864267,"RUCOM2"
829,"Down","रुस्टन कंपनी","Ruston Company","RUCOM1",18.6482664,73.7871881,"RUCOM1"
830,"UP","सादलबाबा दर्गा","Sadalbaba Darga","SADAR2",18.544261,73.878138,"SADAR2"
831,"Down","सादलबाबा  दर्गा","Sadalbaba Darga","SADAR1",18.544253,73.878097,"SADAR1"
832,"UP","सदाशिव पेठ हौद","Sadashiv Peth Haud","SAPEH2",18.513577,73.850625,"SAPEH2"
833,"UP","सहजानंद सोसायटी","Sahajanand Society","SASOC1",18.496477,73.802126,"SASOC1"
834,"Down","सहजानंद सोसायटी","Sahajanand Society","SASOC2",18.496492,73.80196,"SASOC2"
835,"UP","साई चौक पिंपळे सौदागर","Sai Chowk Pimple Saudagar","SACHP1",18.59306678,73.7858638,"SACHP1"
836,"Down","साई चौक पिंपळे सौदागर","Sai Chowk Pimple Saudagar","SACHP2",18.59317386,73.78591577,"SACHP2"
837,"UP","साई चौक वाकड नासिक फाटा रोड","Sai Chowk Wakad Nasik Phata Road","SACHW1",18.59306678,73.7858638,"SACHW1"
838,"Down","साई चौक वाकड नासिक फाटा रोड","Sai Chowk Wakad Nasik Phata Road","SACHW2",18.59317386,73.78591577,"SACHW2"
839,"UP","साई पुरम चौक","Sai Puram Chowk","SAPUC1",18.446704,73.814531,"SAPUC1"
840,"Down","साई पुरम चौक","Sai Puram Chowk","SAPUC2",18.446736,73.814666,"SAPUC2"
841,"UP","साई सत्यम सोसायटी","Sai Satyam Society","SASAS1",18.574864,73.960232,"SASAS1"
842,"Down","साई सत्यम सोसायटी","Sai Satyam Society","SASAS2",18.574233,73.959068,"SASAS2"
843,"UP","साईबाबा मंदिर खराडी","Saibaba Mandir Kharadi","SAMAK1",18.555254,73.934253,"SAMAK1"
844,"Down","साईबाबा मंदिर खराडी","Saibaba Mandir Kharadi","SAMAK2",18.55554,73.934025,"SAMAK2"
845,"UP","साईनाथ नगर","Sainathnagar","SAINA1",18.54011,73.931883,"SAINA1"
846,"Down","साईनाथनगर","Sainathnagar","SAINA2",18.540092,73.931802,"SAINA2"
847,"UP","सैनिकवाडी","Sainikwadi","SAINI1",18.553666,73.91654,"SAINI1"
848,"Down","सैनिकवाडी","Sainikwadi","SAINI2",18.553731,73.916493,"SAINI2"
849,"UP","सणसवाडी नगर रोड","Sanaswadi Nagar Road","SANAR1",18.670935,74.101089,"SANAR1"
850,"Down","सणसवाडी नगर रोड","Sanaswadi Nagar Road","SANAR2",18.670935,74.101089,"SANAR2"
851,"UP","सॅन्डविक","Sandvik Company","SACOM1",18.595338,73.828985,"SACOM1"
852,"Down","सॅन्डविक कंपनी","Sandvik Company","SACOM2",18.594308,73.829912,"SACOM2"
853,"UP","साने चौक","Sane Chowk","SACHO1",18.670185,73.798076,"SACHO1"
854,"Down","साने चौक","Sane Chowk","SACHO2",18.67028,73.798132,"SACHO2"
855,"UP","संगमवाडी  फाटा","Sangamwadi Phata","SMPHA1",18.536611,73.862367,"SMPHA1"
856,"Down","संगमवाडी फाटा","Sangamwadi Phata","SMPHA2",18.536611,73.862367,"SMPHA2"
857,"UP","संगर्षनगर","Sangarshnagar","SANGA1",18.559048,73.931278,"SANGA1"
858,"Down","संगर्षनगर","Sangarshnagar","SANGA2",18.559162,73.931325,"SANGA2"
859,"UP","सांगवी फाटा","Sangvi Phata","SAPHA1",18.572595,73.807257,"SAPHA1"
860,"Down","सांगवी फाटा","Sangvi Phata","SAPHA2",18.573403,73.806893,"SAPHA2"
861,"UP","संजय पार्क","Sanjay Park","SAPAR1",18.572189,73.899458,"SAPAR1"
862,"Down","संजय पार्क","Sanjay Park","SAPAR2",18.572394,73.899765,"SAPAR2"
863,"UP","संत तुकाराम मंगल कार्यालय","Sant Tukaram Mangal Karyalay","SATUM1",18.598993,73.743707,"SATUM1"
864,"Down","संत तुकाराममंगल कार्यालय","Sant Tukaram Mangal Karyalay","SATUM2",18.599402,73.744126,"SATUM2"
865,"UP","साप्रस पोस्ट","Sapras Post","SAPOS1",18.5499,73.86947,"SAPOS1"
866,"Down","साप्रस पोस्ट","Sapras Post","SAPOS2",18.5499,73.86947,"SAPOS2"
867,"UP","सारंग सोसायटी","Sarang Society","SHSOC1",18.489551,73.849875,"SHSOC1"
868,"Down","सारंग सोसायटी","Sarang Society","SHSOC2",18.489359,73.849743,"SHSOC2"
869,"UP","सारसबाग","Sarasbaug","SARAS1",18.503142,73.853688,"SARAS1"
870,"UP","सर्पोद्यान","Sarpodyan","SARPO2",18.4546089,73.8585128,"SARPO2"
871,"Down","सर्पोद्यान","Sarpodyan","SARPO1",18.453802,73.858528,"SARPO1"
872,"UP","ससून हॉस्पिटल ","Sasoon Hospital","SAHOS2",18.525058,73.871446,"SAHOS2"
873,"Down","ससून हॉस्पिटल ","Sasoon Hospital","SAHOS1",18.525058,73.871446,"SAHOS1"
874,"UP","सातव हायस्कुल","Satav Highschool","SAHIG2",18.580807,73.979245,"SAHIG2"
875,"Down","सातव हायस्कुल","Satav Highschool","SAHIG1",18.58064,73.978992,"SAHIG1"
876,"UP","सातववाडी","Satavwadi","SATAV2",18.49493,73.945456,"SATAV2"
877,"Down","सातववाडी","Satavwadi","SATAV1",18.497009,73.942955,"SATAV1"
878,"UP","साठे बिस्किट","Sathe Biscuit","SABIS2",18.570485,73.878916,"SABIS2"
879,"Down","साठे बिस्किट","Sathe Biscuit","SABIS1",18.57048,73.878897,"SABIS1"
880,"Down","सावरकर भवन","Savarkar Bhavan","SABHA2",18.5223533,73.8495933,"SABHA2"
881,"UP","सावित्रीबाई  फुले  उद्यान","Savitribai Phule Udyan","SAPHU1",18.59193473,73.7827981,"SAPHU1"
882,"Down","सावित्रीबाई फुले उद्यान","Savitribai Phule Udyan","SAPHU2",18.59210393,73.78277903,"SAPHU2"
883,"UP","सावतामाळी मंदिर","Sawtamali Mandir","SAMAN1",18.592196,73.759265,"SAMAN1"
884,"Down","सावतामाळी मंदिर","Sawtamali Mandir","SAMAN2",18.592078,73.754691,"SAMAN2"
885,"UP","सिको कंपनी","Seco Company","SECOM1",18.653845,74.077793,"SECOM1"
886,"Down","सिको कंपनी","Seco Company","SECOM2",18.653845,74.077793,"SECOM2"
887,"Down","शाहू चौक","Shahu Chowk","SHCHO1",18.509703,73.85789,"SHCHO1"
888,"UP","शनिपार","Shanipar","SHANI2",18.512204,73.853853,"SHANI2"
889,"UP","शनिवारवाडा","Shaniwarwada","SHANI1",18.519732,73.854501,"SHANI1"
890,"UP","शंकर महाराज मठ","Shankar Maharaj Math","SHMAM2",18.4675771,73.8576868,"SHMAM2"
891,"Down","शंकर महाराज मठ","Shankar Maharaj Math","SHMAM1",18.468671,73.857704,"SHMAM1"
892,"UP","शांतीनगर","Shantinagar","SHANT2",18.568624,73.875692,"SHANT2"
893,"Down","शांतीनगर","Shantinagar","SHANT1",18.568536,73.875814,"SHANT1"
894,"UP","शारदानगर","Sharadnagar","SHARA2",18.666739,73.799554,"SHARA2"
895,"Down","शारदानगर","Sharadnagar","SHARA1",18.666238,73.799466,"SHARA1"
896,"UP","शास्त्री चौक","Shastri Chowk","SHACH2",18.624524,73.858787,"SHACH2"
897,"Down","शास्त्री चौक","Shastri Chowk","SHACH1",18.624535,73.858831,"SHACH1"
898,"UP","शास्त्रीनगर नगर रोड","Shastrinagar Nagar Road","SHNAR2",18.552268,73.897326,"SHNAR2"
899,"Down","शास्त्रीनगर नगर रोड","Shastrinagar Nagar Road","SHNAR1",18.551971,73.895846,"SHNAR1"
900,"UP","शास्त्री नगर पोलीस चौकी","Shastrinagar Police Chowky","SHPOC2",18.506681,73.802753,"SHPOC2"
901,"Down","शास्त्री नगर पोलीस चौकी","Shastrinagar Police Chowky","SHPOC1",18.505873,73.80258,"SHPOC1"
902,"UP","शेती महामंडळ","Sheti Mahamandal","SHMAH2",18.524673,73.829553,"SHMAH2"
903,"Down","शेती महामंडळ","Sheti Mahamandal","SHMAH1",18.524597,73.829702,"SHMAH1"
904,"UP","शेवाळवाडी","Shewalwadi","SHEWA2",18.49645,73.96964,"SHEWA2"
905,"Down","शेवाळवाडी","Shewalwadi","SHEWA1",18.496653,73.969951,"SHEWA1"
906,"UP","शेवाळवाडी मार्केट","Shewalwadi Market","SHMAR2",18.497652,73.961262,"SHMAR2"
907,"Down","शेवाळवाडी मार्केट","Shewalwadi Market","SHMAR1",18.499444,73.963204,"SHMAR1"
908,"UP","शिक्रापूर फाटा","Shikrapur Phata","SHPHA2",18.69217,74.13216,"SHPHA2"
909,"Down","शिक्रापूर फाटा","Shikrapur Phata","SHPHA1",18.69217,74.13216,"SHPHA1"
910,"Down","शीतलबाग","Shitalbaug","SHITA2",18.617318,73.843903,"SHITA2"
911,"UP","शीतेज","Shitej","SHITE1",18.686039,74.139304,"SHITE1"
912,"Down","शीतेज","Shitej","SHITE2",18.686039,74.139304,"SHITE2"
913,"UP","शिवाजी चौक हिंजवडी","Shivaji Chowk Hinjawadi","SHCHH1",18.590952,73.73889,"SHCHH1"
914,"Down","शिवाजी चौक हिंजवडी","Shivaji Chowk Hinjawadi","SHCHH2",18.591606,73.738883,"SHCHH2"
915,"UP","शिवाजी हौसिंग सोसायटी","Shivaji Housing Society","SHHOS1",18.530148,73.829883,"SHHOS1"
916,"Down","शिवाजी हौसिंग सोसायटी","Shivaji Housing Society","SHHOS2",18.53014,73.830055,"SHHOS2"
917,"Down","शिवाजी मराठा हायस्कूल","Shivaji Maratha Highschool","SVMAH1",18.505986,73.858434,"SVMAH1"
918,"UP","शिवाजी पुतळा","Shivaji Putla","SHPUT2",18.526309,73.852866,"SHPUT2"
919,"Down","शिवाजी पुतळा","Shivaji Putla","SHPUT1",18.526318,73.852793,"SHPUT1"
920,"UP","शिवार चौक","Shivar Chowk","SVCHO2",18.594907,73.788771,"SVCHO2"
921,"Down","शिवार चौक","Shivar Chowk","SVCHO1",18.594933,73.788684,"SVCHO1"
922,"UP","शिवदर्शन","Shivdarshan","SHIVD2",18.492602,73.853329,"SHIVD2"
923,"Down","शिवदर्शन","Shivdarshan","SHIVD1",18.492556,73.853213,"SHIVD1"
925,"UP","शिवराजनगर","Shivraj Nagar","SHNAG1",18.599417,73.780394,"SHNAG1"
927,"Down","शिवराजनगर","Shivraj Nagar","SHNAG2",18.599592,73.780655,"SHNAG2"
928,"UP","श्रम साफल्य","Shram Safalya","SHSAF2",18.557577,73.926755,"SHSAF2"
929,"Down","श्रम साफल्य","Shram Safalya","SHSAF1",18.557547,73.926229,"SHSAF1"
930,"UP","शुभम सोसायटी नगर रोड","Shubham Society Nagar Road","SHSON2",18.554663,73.91947,"SHSON2"
931,"Down","शुभम सोसायटी नगर रोड","Shubham Society Nagar Road","SHSON1",18.554589,73.919462,"SHSON1"
932,"UP","सिमेन्स","Siemens","SIEME2",18.591,73.732934,"SIEME2"
933,"Down","सिमेन्स","Siemens","SIEME1",18.591144,73.733002,"SIEME1"
934,"UP","सिमला ऑफिस","Simla Office","SIOFF2",18.53024,73.849262,"SIOFF2"
935,"Down","सिमला ऑफिस","Simla Office","SIOFF1",18.530748,73.847968,"SIOFF1"
936,"UP","सिंध कॉलनी औंध रोड","Sindh Colony Aundh Road","SICOA2",18.556615,73.817635,"SICOA2"
937,"Down","सिंध कॉलनी औंध रोड","Sindh Colony Aundh Road","SICOA1",18.556645,73.81788,"SICOA1"
938,"UP","एसकेएफ","SKF","SKF002",18.634311,73.781927,"SKF002"
939,"Down","एसकेएफ","SKF","SKF001",18.633816,73.781574,"SKF001"
940,"UP","एसएनडीटी कॉलेज","SNDT College","SNCOL2",18.507223,73.828295,"SNCOL2"
941,"Down","एसएनडीटी कॉलेज","SNDT College","SNCOL1",18.507318,73.828873,"SNCOL1"
942,"UP","सोमेश्वर मंदिर","Someshwar Mandir","SOMAN2",18.560234,73.921345,"SOMAN2"
943,"Down","सोमेश्वर मंदिर","Someshwar Mandir","SOMAN1",18.559708,73.921204,"SOMAN1"
944,"UP","सोमनाथनगर","Somnathnagar","SOMNA2",18.55732,73.921345,"SOMNA2"
945,"Down","सोमनाथनगर","Somnathnagar","SOMNA1",18.556796,73.921375,"SOMNA1"
946,"UP","सोनल हॉल","Sonal Hall","SOHAL2",18.510475,73.834811,"SOHAL2"
947,"Down","सोनल हॉल","Sonal Hall","SOHAL1",18.510598,73.83528,"SOHAL1"
948,"UP","सोनावणे हॉस्पिटल","Sonavane Hospital","SOHOS2",18.505712,73.868416,"SOHOS2"
949,"Down","सोनावणे  हॉस्पिटल","Sonavane Hospital","SOHOS1",18.505767,73.868594,"SOHOS1"
950,"UP","सोनवणे हॉस्पीटल","Sonawne Hospital","SWHOS2",18.505712,73.868416,"SWHOS2"
951,"Down","सोनवणे हॉस्पीटल","Sonawne Hospital","SWHOS1",18.505767,73.868594,"SWHOS1"
952,"Down","सोन्या मारुती चौक","Sonya Maruti Chowk","SOMAC2",18.515999,73.859798,"SOMAC2"
953,"UP","सोयरीक मंगल कार्यालय","Soyrik Mangal Karyalay","SOMAK1",18.577125,73.968456,"SOMAK1"
954,"Down","सोयरीक मंगल कार्यालय","Soyrik Mangal Karyalay","SOMAK2",18.577086,73.968486,"SOMAK2"
955,"UP","सृष्टी चौक","Srushti Chowk","SRCHO1",18.596907,73.816896,"SRCHO1"
956,"Down","सृष्टी चौक","Srushti Chowk","SRCHO2",18.596954,73.816975,"SRCHO2"
957,"UP","एसटी कॉलनी","ST Colony","STCOL1",18.4919064,73.8575699,"STCOL1"
958,"Down","एसटी कॉलनी","ST Colony","STCOL2",18.493042,73.8578889,"STCOL2"
959,"UP","एसटी स्टॅन्ड ग्रामपंचायत तळेगाव","ST Stand Grampanchayat Talegaon","STSTG1",18.66749,74.15012,"STSTG1"
960,"Down","एसटी स्टॅन्ड ग्रामपंचायत तळेगाव","ST Stand Grampanchayat Talegaon","STSTG2",18.66749,74.15012,"STSTG2"
961,"UP","एसटी विभागीय कार्यालय","ST Vibhagiya Karyalay","STVIK1",18.500554,73.866452,"STVIK1"
962,"Down","एसटी विभागीय कार्यालय","ST Vibhagiya Karyalay","STVIK2",18.50103,73.86812,"STVIK2"
963,"UP","सुदर्शन नगर","Sudarshannagar","SUDAR1",18.59823,73.811978,"SUDAR1"
964,"Down","सुदर्शन नगर","Sudarshannagar","SUDAR2",18.598218,73.812023,"SUDAR2"
965,"UP","सुखवानी लॉन्स","Sukhvani Lawns","SULAW1",18.593778,73.801951,"SULAW1"
966,"Down","सुखवानी लॉन्स","Sukhvani Lawns","SULAW2",18.594199,73.802074,"SULAW2"
967,"UP","सुंदराबाई  स्कूल","Sundrabai School","SUSCH1",18.557587,73.928244,"SUSCH1"
968,"Down","सुंदराबाई स्कूल","Sundrabai School","SUSCH2",18.557697,73.928135,"SUSCH2"
969,"UP","सुनितानगर","Sunitanagar","SUNIT1",18.559611,73.928058,"SUNIT1"
970,"Down","सुनितानगर","Sunitanagar","SUNIT2",18.559751,73.928007,"SUNIT2"
971,"UP","स्वारगेट","Swargate","SWARG1",18.49927,73.858114,"SWARG1"
972,"Down","स्वारगेट","Swargate","SWARG2",18.498924,73.85855,"SWARG2"
973,"UP","स्वारगेट कॉर्नर","Swargate Corner","SWCOR1",18.50158,73.85788,"SWCOR1"
974,"UP","स्वारगेट डेपो","Swargate Depo","SWDEP2",18.500318,73.861394,"SWDEP2"
975,"Down","स्वारगेट डेपो","Swargate Depo","SWDEP1",18.500108,73.86118,"SWDEP1"
976,"UP","तळेगाव ढमढेरे बाजार","Talegaon Dhamdhere Bazar","TADHB2",18.667027,74.156785,"TADHB2"
977,"Down","तळेगाव ढमढेरे बाजार","Talegaon Dhamdhere Bazar","TADHB1",18.667027,74.156785,"TADHB1"
978,"UP","तळेगाव फाटा एसटी स्टॅन्ड","Talegaon Phata ST Stand","TAPHS2",18.691963,74.135062,"TAPHS2"
979,"Down","तळेगाव फाटा एसटी स्टॅन्ड","Talegaon Phata ST Stand","TAPHS1",18.691963,74.135062,"TAPHS1"
980,"UP","तपोधाम","Tapodham","TAPOD2",18.481977,73.807508,"TAPOD2"
981,"Down","तपोधाम","Tapodham","TAPOD1",18.482031,73.807806,"TAPOD1"
983,"UP","टाटा गार्डरूम","Tata Guardroom","TAGUA1",18.562955,73.928635,"TAGUA1"
984,"Down","टाटा गार्ड रूम","Tata Guardroom","TAGUA2",18.56290833,73.92863667,"TAGUA2"
986,"UP","टाटा जॉन्सन","Tata Johnsan","TAJOH2",18.594354,73.728016,"TAJOH2"
987,"Down","टाटा जॉन्सन","Tata Johnsan","TAJOH1",18.594508,73.728077,"TAJOH1"
988,"UP","टाटा मोटर्स","Tata Motors","TAMOT2",18.58511,73.696699,"TAMOT2"
989,"Down","टाटा मोटर्स","Tata Motors","TAMOT1",18.585131,73.696387,"TAMOT1"
990,"UP","ताथवडे","Tathwade","TATHW2",18.629213,73.753689,"TATHW2"
991,"Down","ताथवडे","Tathwade","TATHW1",18.629383,73.753946,"TATHW1"
992,"UP","टेक महेंद्रा","Tech Mahindra","TEMAH2",18.580904,73.68781,"TEMAH2"
993,"Down","टेक महेंद्रा","Tech Mahindra","TEMAH1",18.581104,73.687604,"TEMAH1"
994,"UP","टेल्को कंपनी","Telco Company","TECOM2",18.644154,73.818869,"TECOM2"
995,"Down","टेल्को कंपनी","Telco Company","TECOM1",18.64481,73.818215,"TECOM1"
996,"UP","टेल्को गोडाउन","Telco Godown","TEGOD2",18.627229,73.874415,"TEGOD2"
997,"Down","टेल्को गोडाउन","Telco Godown","TEGOD1",18.627534,73.87457,"TEGOD1"
998,"UP","टेम्पो चौक","Tempo Chowk","TECHO2",18.550736,73.92103,"TECHO2"
999,"Down","टेम्पो चौक","Tempo Chowk","TECHO1",18.550975,73.920919,"TECHO1"
1000,"UP","थेरगाव","Thergaon","THERG2",18.616405,73.766224,"THERG2"
1001,"Down","थेरगाव","Thergaon","THERG1",,,"THERG1"
1002,"UP","थेरगांव फाटा","Thergaon Phata","THPHA2",18.616405,73.766224,"THPHA2"
1003,"Down","थेरगांव फाटा","Thergaon Phata","THPHA1",18.616405,73.766224,"THPHA1"
1004,"UP","थरमॅक्स कंपनी","Thermax Company","THCOM2",18.660516,73.793332,"THCOM2"
1005,"Down","थरमॅक्स कंपनी","Thermax Company","THCOM1",18.660455,73.793426,"THCOM1"
1006,"UP","थरमॅक्स कंपनी चौक","Thermax Company Chowk","THCOC2",18.660822,73.793508,"THCOC2"
1007,"Down","थरमॅक्स कंपनी चौक","Thermax Company Chowk","THCOC1",18.660446,73.793541,"THCOC1"
1008,"UP","टिळक चौक","Tilak Chowk","TICHO2",18.659436,73.777836,"TICHO2"
1009,"Down","टिळक चौक","Tilak Chowk","TICHO1",18.659537,73.777878,"TICHO1"
1010,"UP","टिळेकर वस्ती","Tilekarvasti","TILEK2",18.508668,73.929936,"TILEK2"
1011,"Down","टिळेकरवस्ती","Tilekarvasti","TILEK1",18.507554,73.929196,"TILEK1"
1012,"UP","टिंगरे नगर","Tingarenagar","TINGA2",18.5760918,73.8907547,"TINGA2"
1013,"Down","टिंगरेनगर","Tingarenagar","TINGA1",18.574257,73.891411,"TINGA1"
1014,"UP","त्रिकोणी  बाग","Trikoni Baug","TRBAU2",18.564279,73.853764,"TRBAU2"
1015,"Down","त्रिकोणी बाग","Trikoni Baug","TRBAU1",18.56416,73.853558,"TRBAU1"
1016,"UP","तुकाईदर्शन","Tukaidarshan","TUKAI2",18.491402,73.94891,"TUKAI2"
1017,"Down","तुकाई दर्शन","Tukaidarshan","TUKAI1",18.491532,73.94905,"TUKAI1"
1018,"UP","तुळापूर फाटा","Tulapur Phata","TUPHA2",18.627172,74.034214,"TUPHA2"
1019,"Down","तुळापूर फाटा","Tulapur Phata","TUPHA1",18.627172,74.034214,"TUPHA1"
1020,"UP","वडाचा स्टॉप","Vadacha Stop","VASTO2",18.491163,73.815115,"VASTO2"
1021,"Down","वडाचा स्टॉप","Vadacha Stop","VASTO1",18.491199,73.815254,"VASTO1"
1022,"UP","वडगाव बु.फाटा","Vadgaon Bk Phata","VABKP2",18.466666,73.817439,"VABKP2"
1023,"Down","वडगाव बु.फाटा","Vadgaon Bk Phata","VABKP1",18.467121,73.818242,"VABKP1"
1024,"UP","वडगाव  शेरी","Vadgaonsheri","VADG11",18.54348,73.9238,"VADG11"
1025,"UP","वडगावशेरी","Vadgaonsheri","VADG01",18.542737,73.923526,"VADG01"
1026,"Down","वडगाव शेरी","Vadgaonsheri","VADG12",18.54686,73.92415,"VADG12"
1027,"Down","वडगावशेरी","Vadgaonsheri","VADG02",18.543189,73.923196,"VADG02"
1028,"UP","वडगावशेरी फाटा","Vadgaonsheri Phata","VAPHA2",18.558905,73.91236833,"VAPHA2"
1029,"Down","वडगावशेरी फाटा","Vadgaonsheri Phata","VAPHA1",18.55892333,73.91233333,"VAPHA1"
1030,"UP","वैदुवाडी","Vaiduwadi","VAIDU2",18.503786,73.922166,"VAIDU2"
1031,"Down","वैदुवाडी","Vaiduwadi","VAIDU1",18.504201,73.921003,"VAIDU1"
1032,"UP","वल्लभनगर","Vallabhnagar","VALLA2",18.615111,73.814916,"VALLA2"
1033,"Down","वल्लभनगर","Vallabhnagar","VALLA1",18.613111,73.817296,"VALLA1"
1034,"UP","वनाज कंपनी","Vanaj Company","VACOM2",18.507099,73.803898,"VACOM2"
1035,"Down","वनाज कंपनी","Vanaj Company","VACOM1",18.506921,73.80402,"VACOM1"
1036,"UP","वनाज कॉर्नर","Vanaj Corner","VACOR2",18.507647,73.808093,"VACOR2"
1037,"Down","वनाज कॉर्नर","Vanaj Corner","VACOR1",18.50779,73.807254,"VACOR1"
1038,"Down","वसंत टॉकीज","Vasant Talkies","VATAL2",18.518226,73.856231,"VATAL2"
1039,"UP","व्हेईकल डेपो","Vehicle Depo","VEDEP1",18.565508,73.85483,"VEDEP1"
1040,"Down","व्हेईकल डेपो","Vehicle Depo","VEDEP2",18.563532,73.856534,"VEDEP2"
1041,"Down","विजय टॉकीज","Vijay Talkies","VITAL1",18.513724,73.846216,"VITAL1"
1042,"UP","विक्रीकर कार्यालय ","Vikrikar Karyalay","VIKAR2",18.554505,73.889996,"VIKAR2"
1043,"Down","विक्रीकर कार्यालय ","Vikrikar Karyalay","VIKAR1",18.554261,73.89009,"VIKAR1"
1044,"UP","विमाननगर कॉर्नर","Vimannagar Corner","VICOR2",18.56136667,73.91955167,"VICOR2"
1045,"Down","विमाननगर कॉर्नर","Vimannagar Corner","VICOR1",18.561225,73.91957667,"VICOR1"
1046,"UP","विशालनगर","Vishalnagar","VISHA2",18.588087,73.784362,"VISHA2"
1047,"Down","विशालनगर","Vishalnagar","VISHA1",18.588332,73.784748,"VISHA1"
1048,"UP","विष्णू उद्योग","Vishnu Udyog","VIUDY2",18.541101,73.931666,"VIUDY2"
1049,"Down","विष्णू उद्योग","Vishnu Udyog","VIUDY1",18.54469,73.930812,"VIUDY1"
1050,"UP","विश्राम बाग वाडा","Vishrambaugwada","VISHB1",18.513615,73.852639,"VISHB1"
1051,"UP","विश्रांतवाडी","Vishrantwadi","VISHR1",18.572757,73.8791,"VISHR1"
1052,"Down","विश्रांतवाडी","Vishrantwadi","VISHR2",18.57274,73.879094,"VISHR2"
1053,"UP","विश्वशांती कॉलनी पीके चौक","Vishvashanti Colony PK Chowk","VICOP1",18.59808326,73.79902193,"VICOP1"
1054,"Down","विश्वशांती कॉलनी पीके चौक","Vishvashanti Colony PK Chowk","VICOP2",18.59809956,73.79904275,"VICOP2"
1055,"UP","वीटभट्टी थेरगाव","Vittbhati Thergaon","VITHE1",,,"VITHE1"
1056,"Down","वीटभट्टी थेरगाव","Vittbhati Thergaon","VITHE2",,,"VITHE2"
1057,"UP","विठ्लवाडी जकात नाका","Vitthalwadi Jakat Naka","VIJAN1",18.491231,73.833099,"VIJAN1"
1058,"Down","विठ्लवाडी जकात नाका","Vitthalwadi Jakat Naka","VIJAN2",18.490705,73.832867,"VIJAN2"
1059,"UP","विठ्ठलवाडी नगर रोड","Vitthalwadi Nagar Road","VINAR1",18.60188,74.01117,"VINAR1"
1060,"Down","विठ्ठलवाडी नगर रोड","Vitthalwadi Nagar Road","VINAR2",18.60188,74.01117,"VINAR2"
1061,"UP","विठ्ठलवाडी सिंहगड रोड ","Vitthalwadi Sinhagad Road","VISIR1",18.484913,73.827857,"VISIR1"
1062,"Down","विठ्ठलवाडी सिंहगड रोड ","Vitthalwadi Sinhagad Road","VISIR2",18.483756,73.827752,"VISIR2"
1063,"UP","वृंदावन","Vrundavan","VRUND1",18.555223,73.915098,"VRUND1"
1064,"Down","वृंदावन","Vrundavan","VRUND2",18.554609,73.915238,"VRUND2"
1065,"UP","वाडेगाव फाटा","Wadegaon Phata","WGPHA1",18.64989,74.07155,"WGPHA1"
1066,"Down","वाडेगाव फाटा","Wadegaon Phata","WGPHA2",18.64424,74.07517,"WGPHA2"
1067,"Down","वाडेश्वर","Wadeshwar","WADES1",18.549214,73.929414,"WADES1"
1068,"UP","वाडीया बंगला","Wadia Bungalow","WABUN2",18.548476,73.89218667,"WABUN2"
1069,"Down","वाडीया बंगला","Wadia Bungalow","WABUN1",18.54846,73.892245,"WABUN1"
1070,"UP","वाडीया कॉलेज","Wadia College","WACOL2",18.5348026,73.8807987,"WACOL2"
1071,"Down","वाडीया कॉलेज","Wadia College","WACOL1",18.5348026,73.8807987,"WACOL1"
1072,"UP","वाघोली","Wagholi","WAGHO2",18.580635,73.982403,"WAGHO2"
1073,"Down","वाघोली","Wagholi","WAGHO1",18.57855,73.98067,"WAGHO1"
1074,"UP","वाकड चौक","Wakad Chowk","WACHO2",18.59235273,73.76171764,"WACHO2"
1075,"Down","वाकड चौक","Wakad Chowk","WACHO1",18.59242873,73.76177095,"WACHO1"
1076,"UP","वाकड फाटा","Wakad Phata","WAPHA2",18.587657,73.789301,"WAPHA2"
1077,"Down","वाकड फाटा","Wakad Phata","WAPHA1",18.587935,73.789569,"WAPHA1"
1078,"UP","वाल्हेकरवाडी फाटा","Walhekarwadi Corner","WACOR2",18.631269,73.777072,"WACOR2"
1079,"Down","वाल्हेकर वाडी फाटा","Walhekarwadi Corner","WACOR1",18.631118,73.777063,"WACOR1"
1080,"UP","वाळके वस्ती","Walkevasti","WALKE2",18.640867,74.050376,"WALKE2"
1081,"Down","वाळकेवस्ती","Walkevasti","WALKE1",18.640867,74.050376,"WALKE1"
1082,"UP","वारजे माळवाडी","Warje Malwadi","WAMAL2",18.475793,73.795668,"WAMAL2"
1083,"Down","वारजे माळवाडी","Warje Malwadi","WAMAL1",18.475702,73.795807,"WAMAL1"
1084,"UP","वारजेगाव","Warjegaon","WARJE2",18.480776,73.806063,"WARJE2"
1085,"Down","वारजेगाव","Warjegaon","WARJE1",18.480536,73.806007,"WARJE1"
1086,"UP","वेस्टएंड ","Westend","WESTE2",18.518702,73.878014,"WESTE2"
1087,"Down","वेस्टएंड ","Westend","WESTE1",18.518785,73.878403,"WESTE1"
1088,"UP","विप्रो कंपनी सर्कल","Wipro Company Circle","WICOC2",18.596687,73.718211,"WICOC2"
1089,"Down","विप्रो कंपनी सर्कल","Wipro Company Circle","WICOC1",18.596858,73.717895,"WICOC1"
1090,"UP","वायरलेस कॉलनी","Wireless Colony","WICOL2",18.599787,73.87306,"WICOL2"
1091,"Down","वायरलेस कॉलनी","Wireless Colony","WICOL1",18.599792,73.873165,"WICOL1"
1092,"UP","यमुनानगर","Yamunanagar","YAMUN2",18.664069,73.787084,"YAMUN2"
1093,"Down","यमुनानगर","Yamunanagar","YAMUN1",18.663982,73.787114,"YAMUN1"
1094,"UP","यशवंतनगर खराडी","Yashwantnagar Kharadi","YAKHA2",18.55375,73.935811,"YAKHA2"
1095,"Down","यशवंतनगर खराडी","Yashwantnagar Kharadi","YAKHA1",18.553868,73.935716,"YAKHA1"
1096,"UP","यशवंतनगर टेल्को रोड ","Yashwantnagar Telco Road","YATER2",18.641341,73.821891,"YATER2"
1097,"Down","यशवंतनगर टेल्को रोड ","Yashwantnagar Telco Road","YATER1",18.641,73.822628,"YATER1"
1098,"UP","यशवंतराव चव्हाण नाट्यगृह","Yashwantrao Chavan Natyagruha","YACHN2",18.502264,73.812957,"YACHN2"
1099,"Down","यशवंतराव चव्हाण नाट्यगृह","Yashwantrao Chavan Natyagruha","YACHN1",18.502126,73.812775,"YACHN1"
1100,"UP","येरवडा","Yerawada","YERAW2",18.545252,73.885668,"YERAW2"
1101,"Down","येरवडा","Yerawada","YERAW1",18.545218,73.885535,"YERAW1"
1102,"UP","येरवडगाव","Yerawadagaon","YERAG2",18.544671,73.882517,"YERAG2"
1103,"Down","येरवडगाव","Yerawadagaon","YERAG1",18.545053,73.882978,"YERAG1"
1104,"UP","येरवडा पोस्ट ऑफिस","Yerwada Post Office","YEPOO1",18.559306,73.891414,"YEPOO1"
1105,"Down","येरवडा पोस्ट ऑफिस","Yerwada Post Office","YEPOO2",18.559866,73.891774,"YEPOO2"
